,ID,area_type,availability,location,size,society,total_sqft,bath,balcony,price,loc_lat,loc_long,dir_from_centre
0,0,Super built-up  Area,19-Dec,Electronic City Phase II,2 BHK,Coomee ,1056,2.0,1.0,39.07,12.8468545,77.6769267,south east
1,1,Plot  Area,Ready To Move,Chikka Tirupathi,4 Bedroom,Theanmp,2600,5.0,3.0,120.0,12.8957681,77.8671014,east
2,2,Built-up  Area,Ready To Move,Uttarahalli,3 BHK,,1440,2.0,3.0,62.0,12.9055682,77.5455438,south west
3,3,Super built-up  Area,Ready To Move,Lingadheeranahalli,3 BHK,Soiewre,1521,3.0,1.0,95.0,13.00129000000004,77.47907000000004,west
4,4,Super built-up  Area,Ready To Move,Kothanur,2 BHK,,1200,2.0,1.0,51.0,13.0613601,77.6493895,north east
5,5,Super built-up  Area,Ready To Move,Whitefield,2 BHK,DuenaTa,1170,2.0,1.0,38.0,12.9696365,77.7497448,east
6,6,Super built-up  Area,18-May,Old Airport Road,4 BHK,Jaades ,2732,4.0,,204.0,12.9583828,77.6663946,east
7,7,Super built-up  Area,Ready To Move,Rajaji Nagar,4 BHK,Brway G,3300,4.0,,600.0,12.9995223,77.5505328,north west
8,8,Super built-up  Area,Ready To Move,Marathahalli,3 BHK,,1310,3.0,1.0,63.25,12.9552572,77.6984163,east
9,9,Plot  Area,Ready To Move,Gandhi Bazar,6 Bedroom,,1020,6.0,,370.0,12.9482767,77.5707802,south
10,10,Super built-up  Area,18-Feb,Whitefield,3 BHK,,1800,2.0,2.0,70.0,12.9696365,77.7497448,east
11,11,Plot  Area,Ready To Move,Whitefield,4 Bedroom,Prrry M,2785,5.0,3.0,295.0,12.9696365,77.7497448,east
12,12,Super built-up  Area,Ready To Move,7th Phase JP Nagar,2 BHK,Shncyes,1000,2.0,1.0,38.0,12.912432,77.5759515,south
13,13,Built-up  Area,Ready To Move,Gottigere,2 BHK,,1100,2.0,2.0,40.0,12.8565317,77.5877237,south
14,14,Plot  Area,Ready To Move,Sarjapur,3 Bedroom,Skityer,2250,3.0,2.0,148.0,12.932266649999999,77.68374728308987,east
15,15,Super built-up  Area,Ready To Move,Mysore Road,2 BHK,PrntaEn,1175,2.0,2.0,73.5,12.9467026,77.5300705,south west
16,16,Super built-up  Area,Ready To Move,Bisuvanahalli,3 BHK,Prityel,1180,3.0,2.0,48.0,13.237580000000037,77.56019000000003,north
17,17,Super built-up  Area,Ready To Move,Raja Rajeshwari Nagar,3 BHK,GrrvaGr,1540,3.0,3.0,60.0,12.858390000000043,80.18606000000005,east
18,18,Super built-up  Area,Ready To Move,Ramakrishnappa Layout,3 BHK,PeBayle,2770,4.0,2.0,290.0,12.9778951,77.5164792,west
19,19,Super built-up  Area,Ready To Move,Manayata Tech Park,2 BHK,,1100,2.0,2.0,48.0,13.0454341,77.6267753,north east
20,20,Built-up  Area,Ready To Move,Kengeri,1 BHK,,600,1.0,1.0,15.0,12.9176571,77.4837568,south west
21,21,Super built-up  Area,19-Dec,Binny Pete,3 BHK,She 2rk,1755,3.0,1.0,122.0,12.966750000000047,77.55946000000006,west
22,22,Plot  Area,Ready To Move,Thanisandra,4 Bedroom,Soitya ,2800,5.0,2.0,380.0,13.054713,77.6339258,north east
23,23,Super built-up  Area,Ready To Move,Bellandur,3 BHK,,1767,3.0,1.0,103.0,12.9279555,77.6807658,south east
24,24,Super built-up  Area,18-Nov, Thanisandra,1 RK,Bhe 2ko,510,1.0,0.0,25.25,13.054713,77.6339258,north east
25,25,Super built-up  Area,18-May,Mangammanapalya,3 BHK,,1250,3.0,2.0,56.0,12.8957595,77.64570119478071,south east
26,26,Super built-up  Area,Ready To Move,Electronic City,2 BHK,Itelaa ,660,1.0,1.0,23.1,12.848759900000001,77.64825295827616,south east
27,27,Built-up  Area,20-Dec,Whitefield,3 BHK,,1610,3.0,2.0,81.0,12.9696365,77.7497448,east
28,28,Super built-up  Area,17-Oct,Ramagondanahalli,2 BHK,ViistLa,1151,2.0,2.0,48.77,12.9558969,77.7405826,east
29,29,Super built-up  Area,Ready To Move,Electronic City,3 BHK,KBityo ,1025,2.0,1.0,47.0,12.848759900000001,77.64825295827616,south east
30,30,Super built-up  Area,19-Dec,Yelahanka,4 BHK,LedorSa,2100 - 2850,4.0,0.0,186.0,13.1006982,77.5963454,north
31,31,Super built-up  Area,Ready To Move,Bisuvanahalli,3 BHK,Prityel,1075,2.0,1.0,35.0,13.237580000000037,77.56019000000003,north
32,32,Super built-up  Area,Ready To Move,Hebbal,3 BHK,Mahosya,1760,2.0,2.0,123.0,13.0382184,77.5919,north
33,33,Super built-up  Area,Ready To Move,Raja Rajeshwari Nagar,3 BHK,GrrvaGr,1693,3.0,3.0,57.39,12.858390000000043,80.18606000000005,east
34,34,Built-up  Area,Ready To Move,Kasturi Nagar,3 BHK,Kantsce,1925,3.0,,125.0,13.0044979,77.6603231,east
35,35,Super built-up  Area,21-Dec,Kanakpura Road,2 BHK,PrarePa,700,2.0,1.0,36.0,12.88576665,77.55275290187642,south
36,36,Super built-up  Area,Ready To Move,Electronics City Phase 1,2 BHK,,1070,2.0,1.0,45.5,12.8496783,77.6649749,south east
37,37,Super built-up  Area,Ready To Move,Kundalahalli,3 BHK,Dieldli,1724,3.0,2.0,125.0,12.9684441,77.7187843,east
38,38,Super built-up  Area,Ready To Move,Chikkalasandra,3 BHK,,1290,2.0,2.0,56.12,12.9121916,77.5476337,south west
39,39,Built-up  Area,Ready To Move,Uttarahalli,2 BHK,,1143,2.0,2.0,45.0,12.9055682,77.5455438,south west
40,40,Built-up  Area,Ready To Move,Murugeshpalya,2 BHK,Gentson,1296,2.0,,81.0,12.9589475,77.65559301497998,east
41,41,Super built-up  Area,19-Dec,Sarjapur  Road,3 BHK,Soini T,1254,3.0,2.0,38.0,12.920441,77.6653284,south east
42,42,Super built-up  Area,Ready To Move,Ganga Nagar,1 BHK,Ceove G,600,1.0,0.0,38.0,13.0232471,77.5883569,north
43,43,Plot  Area,Ready To Move,Yelahanka,1 Bedroom,,660,1.0,0.0,48.0,13.1006982,77.5963454,north
44,44,Super built-up  Area,19-Sep,Kanakpura Road,2 BHK,Soazak ,1330.74,2.0,2.0,91.79,12.88576665,77.55275290187642,south
45,45,Plot  Area,Ready To Move,HSR Layout,8 Bedroom,,600,9.0,,200.0,12.9116225,77.6388622,south east
46,46,Super built-up  Area,Ready To Move,Doddathoguru,2 BHK,LancyRe,970,2.0,0.0,33.0,12.8529125,77.6556155,south east
47,47,Super built-up  Area,20-Sep,Whitefield,2 BHK,Goted U,1459,2.0,1.0,94.82,12.9696365,77.7497448,east
48,48,Plot  Area,Ready To Move,KR Puram,2 Bedroom,,800,1.0,1.0,130.0,13.007516,77.695935,east
49,49,Built-up  Area,Ready To Move,Himagiri Meadows,2 BHK,,869,2.0,1.0,36.0,12.89630025,77.58941132510463,south
50,50,Super built-up  Area,Ready To Move,Adarsh Nagar,2 BHK,Bhncyis,1270,2.0,1.0,50.0,12.96653735,77.61176275075249,east
51,51,Super built-up  Area,18-Mar,Bhoganhalli,3 BHK,Rosha I,1670,3.0,1.0,99.0,12.927050000000065,77.69478000000004,east
52,52,Built-up  Area,Ready To Move,Whitefield,3 BHK,Suent V,2010,3.0,2.0,91.0,12.9696365,77.7497448,east
53,53,Super built-up  Area,Ready To Move,Lakshminarayana Pura,2 BHK,RothaVa,1185,2.0,2.0,75.0,12.827890000000025,76.90970000000004,west
54,54,Super built-up  Area,Ready To Move,Yelahanka,3 BHK,NCowsar,1600,2.0,3.0,75.0,13.1006982,77.5963454,north
55,55,Super built-up  Area,Ready To Move,Begur Road,2 BHK,Dhalsh ,1200,2.0,2.0,44.0,12.8767919,77.6258806,south east
56,56,Built-up  Area,20-Feb,Devanahalli,4 Bedroom,BrereAt,3010 - 3410,,,192.0,13.2483502,77.7134377,north east
57,57,Super built-up  Area,Ready To Move,Ramakrishnappa Layout,2 BHK,PeBayle,1500,2.0,2.0,185.0,12.9778951,77.5164792,west
58,58,Plot  Area,Ready To Move,Murugeshpalya,6 Bedroom,,1407,4.0,1.0,150.0,12.9589475,77.65559301497998,east
59,59,Super built-up  Area,Ready To Move,Govindaraja Nagar Ward,2 BHK,,840,2.0,2.0,45.0,12.9777644,77.53614337049832,west
60,60,Plot  Area,Ready To Move,Tharabanahalli,3 Bedroom,,4395,3.0,2.0,240.0,13.1024779,77.4804347,north west
61,61,Super built-up  Area,Ready To Move,Ganga Nagar,2 BHK,Laavevi,845,2.0,1.0,55.0,13.0232471,77.5883569,north
62,62,Plot  Area,Ready To Move,Whitefield,4 Bedroom,Chranya,5700,5.0,3.0,650.0,12.9696365,77.7497448,east
63,63,Built-up  Area,Ready To Move,Varthur,2 BHK,HioraTr,1160,2.0,2.0,44.0,12.9406152,77.7469937,east
64,64,Built-up  Area,Ready To Move,Bommanahalli,8 Bedroom,,3000,8.0,0.0,140.0,12.9089453,77.6239038,south east
65,65,Super built-up  Area,Ready To Move,Doddathoguru,2 BHK,,1100,2.0,1.0,62.0,12.8529125,77.6556155,south east
66,66,Super built-up  Area,18-Apr,Gunjur,2 BHK,BMineis,1140,2.0,3.0,43.0,13.4279345,77.5131493,north
67,67,Super built-up  Area,Ready To Move,Marathahalli,2 BHK,,1220,2.0,1.0,57.0,12.9552572,77.6984163,east
68,68,Plot  Area,Ready To Move,Devarachikkanahalli,8 Bedroom,,1350,7.0,0.0,85.0,12.8855932,77.6101723,south
69,69,Super built-up  Area,Ready To Move,Kanakpura Road,2 BHK,,1005,2.0,1.0,36.68,12.88576665,77.55275290187642,south
70,70,Plot  Area,Ready To Move,Double Road,3 Bedroom,,500,3.0,2.0,100.0,12.9608146,77.5941145,south east
71,71,Super built-up  Area,20-Aug,Begur Road,2 BHK,Pruthg ,1358,2.0,1.0,80.58,12.8767919,77.6258806,south east
72,72,Super built-up  Area,Ready To Move,Hegde Nagar,3 BHK,Sonosty,1569,3.0,1.0,101.0,13.0720352,77.6333905,north east
73,73,Super built-up  Area,18-Apr,Haralur Road,2 BHK,SNnia E,1240,2.0,1.0,70.0,12.8922203,77.6558048,south east
74,74,Super built-up  Area,Ready To Move,Hennur Road,3 BHK,Anavi B,2089,3.0,2.0,140.0,13.0398416,77.6413592,north east
75,75,Super built-up  Area,Ready To Move,Kothannur,2 BHK,,1206,2.0,1.0,48.23,10.823100000000068,79.38130000000007,south east
76,76,Super built-up  Area,Ready To Move,Kalena Agrahara,2 BHK,,1150,2.0,3.0,40.0,12.8661075,77.59192,south
77,77,Built-up  Area,Ready To Move,Cholanayakanahalli,3 BHK,Viony H,2511,3.0,3.0,205.0,12.9601102,77.3614346,west
78,78,Built-up  Area,Ready To Move,Kaval Byrasandra,2 BHK,,460,1.0,0.0,22.0,13.0200235,77.6092887,north east
79,79,Built-up  Area,Ready To Move,ISRO Layout,6 Bedroom,,4400,6.0,3.0,250.0,12.8974283,77.5573828,south
80,80,Super built-up  Area,Ready To Move,Kodanda Reddy Layout,3 BHK,AdentEl,1660,2.0,2.0,105.0,15.39071000000007,75.06211000000008,north west
81,81,Built-up  Area,18-Oct,Hennur Road,4 Bedroom,Gollela,2957 - 3450,,,224.5,13.0398416,77.6413592,north east
82,82,Super built-up  Area,19-Mar,Yelahanka,2 BHK,Niareum,1326,2.0,2.0,78.0,13.1006982,77.5963454,north
83,83,Super built-up  Area,Ready To Move,Garudachar Palya,3 BHK,,1325,2.0,2.0,60.8,12.9938796,77.7017538,east
84,84,Super built-up  Area,Ready To Move,EPIP Zone,3 BHK,SJlynro,1499,5.0,2.0,102.0,12.9781922,77.7246451,east
85,85,Built-up  Area,Ready To Move,Hegde Nagar,6 Bedroom,,3000,7.0,2.0,210.0,13.0720352,77.6333905,north east
86,86,Super built-up  Area,Ready To Move,Kanakpura Road,3 BHK,,1665,3.0,2.0,88.0,12.88576665,77.55275290187642,south
87,87,Super built-up  Area,17-Sep,Dasanapura,2 BHK,Tavenew,708,2.0,2.0,37.0,13.0758896,77.4364795,north west
88,88,Super built-up  Area,Ready To Move,Kasavanhalli,2 BHK,Srire S,1060,2.0,2.0,58.06,12.9047595,77.6759172,south east
89,89,Plot  Area,Ready To Move,Rajaji Nagar,6 Bedroom,,710,6.0,3.0,160.0,12.9995223,77.5505328,north west
90,90,Built-up  Area,Ready To Move,Sanjay nagar,2 BHK,Saenti ,1000,2.0,2.0,70.0,12.9578658,77.6958748,east
91,91,Super built-up  Area,18-Dec,Electronic City,2 BHK,,1000,2.0,1.0,28.88,12.848759900000001,77.64825295827616,south east
92,92,Super built-up  Area,Ready To Move, Mysore Highway,3 BHK,,1450,2.0,2.0,70.0,13.1908778,77.6457522,north
93,93,Plot  Area,Ready To Move,ISRO Layout,4 Bedroom,,1200,4.0,2.0,155.0,12.8974283,77.5573828,south
94,94,Super built-up  Area,17-Aug,Thanisandra,2 BHK,Bhmesy ,1296,2.0,3.0,80.0,13.054713,77.6339258,north east
95,95,Super built-up  Area,Ready To Move,Domlur,3 BHK,,1540,3.0,2.0,90.0,12.9624669,77.6381958,east
96,96,Plot  Area,Ready To Move,Kengeri,4 Bedroom,Goardth,2894,4.0,1.0,245.0,12.9176571,77.4837568,south west
97,97,Super built-up  Area,Ready To Move,Sarjapura - Attibele Road,3 BHK,,1330,2.0,1.0,48.0,12.847179405659448,77.78246341126294,south east
98,98,Built-up  Area,Ready To Move,Devasthanagalu,2 BHK,,1200,2.0,1.0,65.0,,,
99,99,Built-up  Area,Ready To Move,T Dasarahalli,3 Bedroom,,1200,3.0,1.0,90.0,13.04514135,77.51478942729403,north west
100,100,Super built-up  Area,Ready To Move,Yeshwanthpur,3 BHK,IBityin,2502,3.0,3.0,138.0,13.0371162,77.5280547,north west
101,101,Built-up  Area,Ready To Move,Chandapura,2 BHK,KHityry,650,1.0,1.0,17.0,12.8004439,77.7062826,south east
102,102,Plot  Area,Ready To Move,Kothanur,3 Bedroom,BDensar,2400,2.0,1.0,150.0,13.0613601,77.6493895,north east
103,103,Super built-up  Area,Ready To Move,Green View Layout,2 BHK,Makeser,1007,2.0,2.0,43.0,12.9626812,77.6565351,east
104,104,Super built-up  Area,Ready To Move,Shantiniketan Layout,2 BHK,Maest N,1200,2.0,2.0,50.0,12.9147113,77.6024933,south
105,105,Super built-up  Area,Ready To Move,Peenya,2 BHK,,966,2.0,2.0,49.9,13.0329419,77.5273253,north west
106,106,Built-up  Area,Ready To Move,Nagarbhavi,3 BHK,,1630,2.0,1.0,98.0,12.95961755,77.51126721318181,west
107,107,Built-up  Area,Ready To Move,Rajaji Nagar,3 BHK,Brway G,1640,3.0,2.0,229.0,12.9995223,77.5505328,north west
108,108,Built-up  Area,Ready To Move,Jalahalli West,2 BHK,,782,2.0,2.0,55.68,13.0533332,77.5306036,north west
109,109,Super built-up  Area,19-Apr,Devanahalli,2 BHK,Oznuean,1260,2.0,2.0,66.78,13.2483502,77.7134377,north east
110,110,Super built-up  Area,Ready To Move,Lakshmiamma Garden,3 BHK,,1800,3.0,3.0,120.0,12.955740000000048,77.59921000000008,south east
111,111,Super built-up  Area,Ready To Move,Byatarayanapura,3 BHK,Reeroce,1413,2.0,2.0,75.0,13.0666526,77.591967,north
112,112,Super built-up  Area,Ready To Move,Whitefield,2 BHK,Sonviik,1116,2.0,1.0,51.91,12.9696365,77.7497448,east
113,113,Super built-up  Area,Ready To Move,Electronic City,3 BHK,DSgmax ,1530,2.0,1.0,45.9,12.848759900000001,77.64825295827616,south east
114,114,Built-up  Area,Ready To Move,Ramamurthy Nagar,4 Bedroom,,3700,4.0,1.0,225.0,13.0120218,77.6777817,north east
115,115,Built-up  Area,Ready To Move,Sarjapur  Road,3 Bedroom,Cetattu,2497,3.0,2.0,140.0,12.920441,77.6653284,south east
116,116,Super built-up  Area,Ready To Move,Kengeri,3 BHK,Vaens G,1540,2.0,3.0,64.0,12.9176571,77.4837568,south west
117,117,Super built-up  Area,18-Dec,Thanisandra,3 BHK,,1436,3.0,1.0,74.75,13.054713,77.6339258,north east
118,118,Super built-up  Area,18-Jun,Malleshwaram,2 BHK,,1100,2.0,2.0,75.0,13.0027353,77.5703253,north
119,119,Plot  Area,Ready To Move,Hennur Road,2 Bedroom,,276,3.0,3.0,23.0,13.0398416,77.6413592,north east
120,120,Super built-up  Area,Ready To Move,Thanisandra,3 BHK,Moity S,1427,3.0,2.0,120.0,13.054713,77.6339258,north east
121,121,Super built-up  Area,Ready To Move,Akshaya Nagar,3 BHK,HiahsLa,2061,3.0,1.0,200.0,13.0195427,77.6831272,north east
122,122,Super built-up  Area,18-Mar,Hebbal,4 BHK,SNontle,3067 - 8156,4.0,0.0,477.0,13.0382184,77.5919,north
123,123,Built-up  Area,Ready To Move,Shampura,4 BHK,,2650,4.0,2.0,150.0,13.0272035,77.6140682,north east
124,124,Super built-up  Area,22-Dec,Devanahalli,3 BHK,Sabixtt,1282,2.0,2.0,68.52,13.2483502,77.7134377,north east
125,125,Built-up  Area,Ready To Move,Kadugodi,2 BHK,,1050,2.0,1.0,34.0,12.9985767,77.7609716,east
126,126,Built-up  Area,Ready To Move,LB Shastri Nagar,3 BHK,Sragei ,1600,3.0,2.0,65.0,27.193940000000055,77.45309000000003,north
127,127,Super built-up  Area,22-Jan,Vajarahalli,2 BHK,,945,2.0,1.0,54.0,13.1016741,77.406047,north west
128,128,Super built-up  Area,Ready To Move,Hormavu,2 BHK,SyidaCr,1500,2.0,1.0,78.0,13.0216149,77.6574918,north east
129,129,Plot  Area,Ready To Move,Vishwapriya Layout,7 Bedroom,,950,7.0,0.0,115.0,19.910470000000032,75.35541000000006,north
130,130,Built-up  Area,Ready To Move,Peenya,3 BHK,Jahts H,1870,3.0,3.0,110.0,13.0329419,77.5273253,north west
131,131,Plot  Area,Ready To Move,Sarjapur,3 Bedroom,Inensba,1600,3.0,1.0,75.0,12.932266649999999,77.68374728308987,east
132,132,Super built-up  Area,Ready To Move,Electronic City,2 BHK,Itelaa ,880,1.0,1.0,16.5,12.848759900000001,77.64825295827616,south east
133,133,Plot  Area,Ready To Move,Ramaswamy Palya - Kammanahalli Main Road,4 Bedroom,,1200,4.0,0.0,210.0,13.020470174192727,77.61598365299245,north east
134,134,Super built-up  Area,Ready To Move,Kudlu Gate,3 BHK,Srier P,1535,3.0,2.0,83.0,12.8898043,77.6390627,south east
135,135,Built-up  Area,Ready To Move,Kanakpura Road,2 BHK,Wiowsri,950,2.0,1.0,57.0,12.88576665,77.55275290187642,south
136,136,Super built-up  Area,18-Aug,Devanahalli,2 BHK,Derdsig,1360,2.0,1.0,65.0,13.2483502,77.7134377,north east
137,137,Super built-up  Area,19-Mar,8th Phase JP Nagar,2 BHK,Vaarech,1042 - 1105,2.0,0.0,54.005,12.9167948,77.595038,south
138,138,Super built-up  Area,18-May,Bommasandra Industrial Area,3 BHK,,1280,3.0,1.0,50.4,12.81114,77.6634021,south east
139,139,Super built-up  Area,19-Jan,Chandra Layout,3 BHK,TiaksAa,1260,2.0,2.0,85.05,12.965293,77.5181551,west
140,140,Built-up  Area,Ready To Move,Hennur Road,8 Bedroom,,5000,8.0,,250.0,13.0398416,77.6413592,north east
141,141,Super built-up  Area,19-Dec,Yelahanka,5 BHK,LedorSa,3050,5.0,1.0,213.0,13.1006982,77.5963454,north
142,142,Super built-up  Area,Ready To Move,Kasavanhalli,3 BHK,HMwerCo,1563.05,3.0,1.0,105.0,12.9047595,77.6759172,south east
143,143,Super built-up  Area,Ready To Move,ISRO Layout,2 BHK,,1000,2.0,1.0,60.0,12.8974283,77.5573828,south
144,144,Super built-up  Area,17-Jul,Anandapura,2 BHK,ViensRK,1167,2.0,1.0,43.76,13.0239276,77.6923621,north east
145,145,Super built-up  Area,Ready To Move,Vishveshwarya Layout,7 BHK,,4000,7.0,2.0,225.0,12.957220000000063,77.47976000000006,west
146,146,Super built-up  Area,Ready To Move,Kothanur,3 BHK,Somumys,1828,3.0,,110.0,13.0613601,77.6493895,north east
147,147,Super built-up  Area,Ready To Move,Kengeri Satellite Town,2 BHK,HoiewLa,890,2.0,1.0,35.0,12.9229728,77.4842926,south west
148,148,Super built-up  Area,Ready To Move,Basavanapura,3 BHK,Dwity T,1612,3.0,3.0,46.74,13.2252819,77.576019,north
149,149,Plot  Area,Ready To Move,Dinnur,6 Bedroom,,1034,5.0,,185.0,13.0212785,77.6064833,north east
150,150,Super built-up  Area,19-Apr,Mysore Road,3 BHK,Brama P,1710,4.0,2.0,91.31,12.9467026,77.5300705,south west
151,151,Super built-up  Area,Ready To Move,Kannamangala,2 BHK,VBownre,957,2.0,1.0,58.0,13.2151923,77.6667197,north
152,152,Super built-up  Area,18-May, Devarachikkanahalli,3 BHK,,1250,2.0,3.0,44.0,12.8855932,77.6101723,south
153,153,Super built-up  Area,Ready To Move,Sanjeevini Nagar,3 BHK,Betatsi,2795,4.0,,235.0,13.0577532,77.588968,north
154,154,Super built-up  Area,Ready To Move,Hulimavu,2 BHK,Prcan P,1125,2.0,2.0,50.0,12.8773486,77.6028031,south
155,155,Super built-up  Area,18-Jul,Electronic City Phase II,2 BHK,Sryalan,1020,2.0,1.0,30.6,12.8468545,77.6769267,south east
156,156,Super built-up  Area,Ready To Move,Kalena Agrahara,2 BHK,,1200,2.0,2.0,50.0,12.8661075,77.59192,south
157,157,Super built-up  Area,Ready To Move,Thanisandra,3 BHK,Soitya ,1735,3.0,3.0,135.0,13.054713,77.6339258,north east
158,158,Super built-up  Area,Ready To Move,Thanisandra,3 BHK,G conTh,2050,3.0,1.0,145.0,13.054713,77.6339258,north east
159,159,Plot  Area,Ready To Move,Mahalakshmi Layout,4 Bedroom,,3750,4.0,0.0,760.0,13.0113153,77.5446972,north west
160,160,Built-up  Area,Ready To Move,Yarandahalli,3 BHK,,1350,2.0,3.0,48.0,12.8087698,77.6673579,south east
161,161,Super built-up  Area,18-May,Hosa Road,2 BHK,SStusan,1063,2.0,1.0,32.0,12.8706073,77.6540565,south east
162,162,Super built-up  Area,Ready To Move,Keshava Nagar,3 BHK,ETens G,1904,3.0,1.0,150.0,17.43101000000007,78.51953000000003,north
163,163,Built-up  Area,Ready To Move,Whitefield,4 Bedroom,,4200,4.0,2.0,420.0,12.9696365,77.7497448,east
164,164,Super built-up  Area,Ready To Move,RMV Extension,3 BHK,Hohnari,2000,3.0,1.0,175.0,13.03565265,77.57479784652307,north
165,165,Super built-up  Area,18-Dec,Sarjapur,2 BHK,Kinuerg,1145 - 1340,2.0,0.0,43.49,12.932266649999999,77.68374728308987,east
166,166,Super built-up  Area,Ready To Move,Tejaswini Nagar,3 BHK,Naods W,1425,2.0,2.0,75.0,12.8601508,77.6051147,south
167,167,Super built-up  Area,Ready To Move,Electronic City,3 BHK,GMown E,1500,2.0,1.0,64.5,12.848759900000001,77.64825295827616,south east
168,168,Built-up  Area,Ready To Move,Electronic City,2 BHK,GMown E,1060,2.0,1.0,60.0,12.848759900000001,77.64825295827616,south east
169,169,Built-up  Area,Ready To Move,Jai Bheema Nagar,3 BHK,Sancyra,1470,2.0,2.0,70.0,16.849590000000035,75.69628000000006,north west
170,170,Super built-up  Area,Ready To Move,Kothnur Narayanapura,6 BHK,,1300,6.0,0.0,99.0,13.064290021110466,77.64213983309025,north east
171,171,Super built-up  Area,Ready To Move,Attibele,1 BHK,Jae 1hu,450,1.0,1.0,11.0,12.7782588,77.7712834,south east
172,172,Super built-up  Area,18-Apr,Electronic City,2 BHK,Prarkun,1152,2.0,1.0,64.5,12.848759900000001,77.64825295827616,south east
173,173,Super built-up  Area,Ready To Move,Electronic City,3 BHK,GMown E,1350,2.0,1.0,56.0,12.848759900000001,77.64825295827616,south east
174,174,Super built-up  Area,Ready To Move,CV Raman Nagar,3 BHK,Srshq T,1550,3.0,3.0,65.0,12.9856596,77.6638971,east
175,175,Plot  Area,Ready To Move,CHIKKATIRUPATHI,3 Bedroom,,1500,3.0,2.0,100.0,12.894690000000026,77.86844000000008,east
176,176,Plot  Area,Ready To Move,Kumaraswami Layout,5 Bedroom,,600,3.0,2.0,85.0,12.898190000000056,77.55927000000008,south
177,177,Plot  Area,Ready To Move,Nagavara,1 Bedroom,,400,1.0,0.0,14.0,13.0374647,77.623602,north east
178,178,Super built-up  Area,Ready To Move,Malleshwaram,1 BHK,Utntspa,705,1.0,2.0,67.0,13.0027353,77.5703253,north
179,179,Built-up  Area,Ready To Move,Electronic City,2 BHK,GMown E,770,1.0,1.0,36.0,12.848759900000001,77.64825295827616,south east
180,180,Super built-up  Area,Ready To Move,Hulimavu,2 BHK,Aniona ,1242,2.0,3.0,51.0,12.8773486,77.6028031,south
181,181,Super built-up  Area,Ready To Move,Hebbal Kempapura,3 BHK,Goateds,1700,3.0,2.0,155.0,13.0521017,77.6018107,north
182,182,Super built-up  Area,Ready To Move,Thanisandra,3 BHK,Soitya ,2144,3.0,2.0,145.0,13.054713,77.6339258,north east
183,183,Super built-up  Area,21-Jun,Vijayanagar,3 BHK,Saahaat,1704,3.0,2.0,110.0,12.9718886,77.54578883887129,west
184,184,Super built-up  Area,Ready To Move,Electronic City,2 BHK,GMown E,1070,2.0,1.0,52.0,12.848759900000001,77.64825295827616,south east
185,185,Plot  Area,Ready To Move,8th block Koramangala,3 Bedroom,,1846,3.0,2.0,300.0,12.9287596,77.6287122,south east
186,186,Super built-up  Area,Ready To Move,Jakkuru Layout,2 BHK,,1340,2.0,2.0,55.7,13.09831985,77.62514557763072,north
187,187,Built-up  Area,Ready To Move,Electronic City,2 BHK,GMown E,1025,2.0,1.0,46.0,12.848759900000001,77.64825295827616,south east
188,188,Super built-up  Area,Ready To Move,KR Puram,2 BHK,MCvarar,1015 - 1540,2.0,0.0,56.8,13.007516,77.695935,east
189,189,Super built-up  Area,Ready To Move,Marathahalli,2 BHK,VRave E,1200,2.0,2.0,52.0,12.9552572,77.6984163,east
190,190,Built-up  Area,18-Dec,Kanakpura Road,4 Bedroom,,2250,4.0,1.0,110.0,12.88576665,77.55275290187642,south
191,191,Super built-up  Area,Ready To Move,Pattandur Agrahara,3 BHK,MaidoPl,1550,2.0,3.0,80.0,12.9876589,77.7377128,east
192,192,Plot  Area,Ready To Move,Bellandur,4 Bedroom,,1200,5.0,,325.0,12.9279555,77.6807658,south east
193,193,Plot  Area,Ready To Move,Ejipura,7 Bedroom,,1800,7.0,1.0,250.0,12.945245,77.6269144,south east
194,194,Super built-up  Area,Ready To Move,Marathahalli,2 BHK,Aiitya ,1200,2.0,2.0,60.0,12.9552572,77.6984163,east
195,195,Super built-up  Area,Ready To Move,Yelahanka,2 BHK,PuziaVe,1327,2.0,2.0,98.0,13.1006982,77.5963454,north
196,196,Super built-up  Area,Ready To Move,Kothanur,2 BHK,,1186,2.0,2.0,58.0,13.0613601,77.6493895,north east
197,197,Built-up  Area,Ready To Move,MS Pallya,3 Bedroom,,1783,3.0,1.0,115.0,13.089650000000063,77.54331000000008,north
198,198,Super built-up  Area,Ready To Move,HSR Layout,3 BHK,NRosete,1400,3.0,2.0,56.0,12.9116225,77.6388622,south east
199,199,Super built-up  Area,Ready To Move,Nagasandra,2 BHK,,980,2.0,1.0,48.0,13.0479497,77.5001349,north west
200,200,Super built-up  Area,Ready To Move,EPIP Zone,2 BHK,,1285,2.0,2.0,82.0,12.9781922,77.7246451,east
201,201,Super built-up  Area,Ready To Move,Langford Town,3 BHK,,912,2.0,1.0,70.0,12.957998,77.6037312,south east
202,202,Built-up  Area,Ready To Move,Whitefield,2 BHK,Sancya ,1225,2.0,2.0,47.6,12.9696365,77.7497448,east
203,203,Super built-up  Area,Ready To Move,Whitefield,2 BHK,,1075,2.0,1.0,53.0,12.9696365,77.7497448,east
204,204,Built-up  Area,Ready To Move,Kadugodi,3 BHK,MSingco,1260,2.0,2.0,54.0,12.9985767,77.7609716,east
205,205,Super built-up  Area,Ready To Move,Yelahanka,3 BHK,Pyikad ,1282,2.0,2.0,48.7,13.1006982,77.5963454,north
206,206,Super built-up  Area,Ready To Move,Kogilu,3 BHK,CaIRSCr,1909,3.0,2.0,88.0,13.104198,77.6170849,north
207,207,Super built-up  Area,Ready To Move,Panathur,2 BHK,Prcesvy,1359,2.0,1.0,87.0,12.9351457,77.7047541,east
208,208,Built-up  Area,Ready To Move,Nagondanahalli,2 BHK,,1207,2.0,2.0,43.5,12.97516,77.7703403,east
209,209,Plot  Area,Ready To Move,Padmanabhanagar,4 Bedroom,,1736,6.0,0.0,190.0,12.91814255,77.55767110316643,south
210,210,Super built-up  Area,20-May,1st Block Jayanagar,4 BHK,,2850,4.0,1.0,428.0,12.9325276,77.5894233,south
211,211,Super built-up  Area,Ready To Move,Kammasandra,3 BHK,Emstael,1595,3.0,2.0,65.0,13.1499855,77.782041,north east
212,212,Built-up  Area,18-Jun,"Off Sarjapur Road, ",3 BHK,,1798,3.0,2.0,89.0,12.90982715,77.687841195793,south east
213,213,Super built-up  Area,Ready To Move,Electronics City Phase 1,3 BHK,SNdri N,1475,3.0,2.0,78.29,12.8496783,77.6649749,south east
214,214,Super built-up  Area,Ready To Move,Tala Cauvery Layout,3 BHK,HodhiSa,1580,3.0,3.0,100.0,13.061730000000068,77.51930000000004,north west
215,215,Super built-up  Area,Ready To Move,Dasarahalli,2 BHK,Syonyph,1295,2.0,1.0,65.0,12.9784134,77.5427194,west
216,216,Built-up  Area,Ready To Move,Magadi Road,6 Bedroom,,3600,6.0,0.0,141.0,12.9756527,77.5553548,west
217,217,Super built-up  Area,Ready To Move,Electronic City,1 BHK,Itvir M,589,1.0,1.0,27.0,12.848759900000001,77.64825295827616,south east
218,218,Super built-up  Area,Ready To Move,Ngef Layout,3 BHK,,1415,3.0,3.0,78.0,12.9592694,77.5093895,west
219,219,Super built-up  Area,18-Dec,Sarjapur  Road,3 BHK,Klark L,1787,3.0,2.0,98.29,12.920441,77.6653284,south east
220,220,Super built-up  Area,Ready To Move,Sarjapur  Road,3 BHK,Klark L,1787,3.0,2.0,125.0,12.920441,77.6653284,south east
221,221,Super built-up  Area,Ready To Move,Koramangala,3 BHK,Piityra,1475,2.0,3.0,90.0,13.2923988,77.7519261,north east
222,222,Built-up  Area,Ready To Move,"Lakshminarayanapura, Electronic City Phase 2",4 BHK,,2000,4.0,1.0,75.5,12.853400000000022,77.67537000000004,south east
223,223,Super built-up  Area,19-Mar,Sarjapur  Road,2 BHK,AsastDe,984,2.0,1.0,44.28,12.920441,77.6653284,south east
224,224,Super built-up  Area,19-Dec,Devanahalli,3 BHK,Jurdsig,1520 - 1740,,,74.82,13.2483502,77.7134377,north east
225,225,Super built-up  Area,Ready To Move,Muthurayya Swamy Layout,3 BHK,MacleK ,2405,4.0,2.0,260.0,12.990170000000035,77.50850000000008,west
226,226,Built-up  Area,Ready To Move,7th Phase JP Nagar,2 BHK,Brnia G,1080,2.0,2.0,72.0,12.912432,77.5759515,south
227,227,Plot  Area,Ready To Move,Shantiniketan Layout,2 Bedroom,,1500,2.0,1.0,115.0,12.9147113,77.6024933,south
228,228,Super built-up  Area,Ready To Move,Hebbal,3 BHK,,1900,3.0,2.0,119.0,13.0382184,77.5919,north
229,229,Super built-up  Area,19-Aug,Dommasandra,2 BHK,,805,2.0,1.0,22.14,12.8777098,77.7534769,south east
230,230,Super built-up  Area,Ready To Move,Budigere,2 BHK,PrityTr,1153,2.0,2.0,56.4,13.1351402,77.74957,north east
231,231,Super built-up  Area,Ready To Move,Dodda Nekkundi Extension,2 BHK,AlEcone,1148,2.0,2.0,60.0,12.971498201279163,77.70626460906084,east
232,232,Super built-up  Area,Ready To Move,Mylasandra,2 BHK,Laowsba,1110,2.0,2.0,55.0,12.8514983,77.6204097,south
233,233,Built-up  Area,Ready To Move,Electronic City,2 BHK,Saave R,1100,2.0,2.0,42.0,12.848759900000001,77.64825295827616,south east
234,234,Super built-up  Area,Ready To Move,Kalyan nagar,2 BHK,Anave S,1290,2.0,2.0,110.0,13.0221416,77.6403368,north east
235,235,Super built-up  Area,Ready To Move,Dr Shivarama Karantha Nagar,3 BHK,,1500,2.0,1.0,65.0,13.318040000000053,77.13825000000008,north west
236,236,Super built-up  Area,18-Apr,Bank Of Baroda Colony,2 BHK,,1080,2.0,2.0,39.0,12.893481,77.5837404,south
237,237,Super built-up  Area,21-Jun,Vijayanagar,3 BHK,Saityat,1933,3.0,1.0,129.0,12.9718886,77.54578883887129,west
238,238,Built-up  Area,Ready To Move,Ramamurthy Nagar,5 Bedroom,,3500,5.0,2.0,150.0,13.0120218,77.6777817,north east
239,239,Built-up  Area,Ready To Move,Kullappa Colony,2 BHK,,1060,2.0,2.0,60.0,12.96405974564374,77.65659881962651,east
240,240,Super built-up  Area,18-Aug,Chandapura,1 BHK,SunceEs,645,1.0,1.0,16.45,12.8004439,77.7062826,south east
241,241,Plot  Area,Ready To Move,Mukkutam Nagar,8 Bedroom,,2600,8.0,2.0,180.0,19.056260000000066,74.82070000000004,north west
242,242,Super built-up  Area,18-Sep,Chandapura,1 BHK,SunceEs,645,1.0,1.0,16.45,12.8004439,77.7062826,south east
243,243,Super built-up  Area,Ready To Move,Ashwath Nagar,3 BHK,SJcerpe,1644,3.0,3.0,84.0,13.0467537,77.6321873,north east
244,244,Super built-up  Area,Ready To Move,Ncpr Industrial Layout,2 BHK,Supams ,1285,2.0,3.0,72.5,12.9860513,77.7126557,east
245,245,Plot  Area,Ready To Move,Electronic City,3 Bedroom,,1200,3.0,1.0,90.0,12.848759900000001,77.64825295827616,south east
246,246,Super built-up  Area,Ready To Move,Electronic City,2 BHK,CoapeSo,910,2.0,1.0,40.0,12.848759900000001,77.64825295827616,south east
247,247,Super built-up  Area,Ready To Move,Kothanur,3 BHK,Bisic C,1577,3.0,1.0,70.0,13.0613601,77.6493895,north east
248,248,Plot  Area,17-May,Meenakunte,3 Bedroom,Sreat R,4050,3.0,2.0,280.0,13.180220000000077,77.64402000000007,north
249,249,Super built-up  Area,Ready To Move,OMBR Layout,3 BHK,Inntsa ,2420,3.0,2.0,185.0,13.0082078,77.652392,north east
250,250,Super built-up  Area,Ready To Move,Chandapura,2 BHK,KHityry,800,1.0,1.0,20.0,12.8004439,77.7062826,south east
251,251,Built-up  Area,Ready To Move,Anand Nagar,2 BHK,,1060,2.0,2.0,55.0,12.9600501,77.6451721,east
252,252,Super built-up  Area,Ready To Move,7th Phase JP Nagar,2 BHK,BriumMi,1270,2.0,2.0,93.0,12.912432,77.5759515,south
253,253,Super built-up  Area,18-Jun,Shree Ananth Nagar Layout,2 BHK,,900,2.0,2.0,22.5,21.183550000000025,79.06093000000004,north
254,254,Built-up  Area,Ready To Move,Kundalahalli Colony,2 Bedroom,,1280,2.0,1.0,69.0,12.969909,77.7116944,east
255,255,Plot  Area,Ready To Move,Horamavu Agara,4 Bedroom,,1200,2.0,0.0,95.0,13.0367725,77.6549479,north east
256,256,Built-up  Area,Ready To Move,Sarjapur  Road,2 BHK,,1025,2.0,2.0,36.0,12.920441,77.6653284,south east
257,257,Super built-up  Area,17-Jun,Electronic City,2 BHK,Prarkun,1108,2.0,1.0,63.0,12.848759900000001,77.64825295827616,south east
258,258,Plot  Area,Ready To Move,MCECHS  layout,5 Bedroom,,1200,5.0,,170.0,13.0725802,77.6152451,north
259,259,Super built-up  Area,Ready To Move,Coffee Board Layout,3 BHK,Calyxy ,3045,3.0,2.0,170.0,13.0503251,77.6060803,north
260,260,Plot  Area,Ready To Move,Ambedkar Nagar,4 Bedroom,Thessrm,2900,3.0,2.0,300.0,12.9490851,77.6184873,south east
261,261,Super built-up  Area,Ready To Move,Vijayanagar,3 BHK,JJortom,1500,3.0,2.0,75.5,12.9718886,77.54578883887129,west
262,262,Super built-up  Area,Ready To Move,Raja Rajeshwari Nagar,2 BHK,GrrvaGr,1295,2.0,2.0,43.9,12.858390000000043,80.18606000000005,east
263,263,Super built-up  Area,Ready To Move,Budigere,2 BHK,PrityTr,1162,2.0,1.0,59.9,13.1351402,77.74957,north east
264,264,Super built-up  Area,Ready To Move,Sarjapur  Road,2 BHK,Usquaya,1035,2.0,2.0,49.2,12.920441,77.6653284,south east
265,265,Built-up  Area,Ready To Move,Attibele,4 Bedroom,Natic T,1600,4.0,0.0,52.8,12.7782588,77.7712834,south east
266,266,Super built-up  Area,Ready To Move,KUDLU MAIN ROAD,3 BHK,,1464,3.0,2.0,46.0,12.8898296,77.6399476,south east
267,267,Super built-up  Area,18-Oct,Hennur Road,3 BHK,DSapeSk,1866,2.0,2.0,61.58,13.0398416,77.6413592,north east
268,268,Super built-up  Area,Ready To Move,Geleyara Balaga Layout,2 BHK,Jahtsa ,700,1.0,1.0,26.0,22.34505000000007,85.29885000000007,north east
269,269,Super built-up  Area,Ready To Move,Kalena Agrahara,3 BHK,Prillot,1804,3.0,2.0,120.0,12.8661075,77.59192,south
270,270,Super built-up  Area,Ready To Move,Sarjapur,2 BHK,,913,2.0,1.0,32.0,12.932266649999999,77.68374728308987,east
271,271,Super built-up  Area,21-Dec,Talaghattapura,3 BHK,Sodgere,1868,3.0,2.0,131.0,12.86480000000006,77.53288000000003,south west
272,272,Built-up  Area,Ready To Move,Kengeri Satellite Town,2 BHK,,883,2.0,1.0,45.0,12.9229728,77.4842926,south west
273,273,Plot  Area,Ready To Move,Sundara Nagar,2 Bedroom,,900,2.0,1.0,110.0,12.972900450000001,77.6151954110558,east
274,274,Super built-up  Area,Ready To Move,Kogilu,3 BHK,,1664,2.0,3.0,73.95,13.104198,77.6170849,north
275,275,Super built-up  Area,Ready To Move,Hegde Nagar,3 BHK,SoitaCa,2026,3.0,2.0,132.0,13.0720352,77.6333905,north east
276,276,Super built-up  Area,Ready To Move,Balagere,2 BHK,Soestin,1210,2.0,1.0,80.9,12.9377243,77.7280705,east
277,277,Plot  Area,Ready To Move,Meenakunte,4 Bedroom,Sreat R,4111,4.0,2.0,250.0,13.180220000000077,77.64402000000007,north
278,278,Super built-up  Area,Ready To Move,Kadugodi,3 BHK,Alestrb,1762,3.0,3.0,91.45,12.9985767,77.7609716,east
279,279,Super built-up  Area,Ready To Move,Jigani,3 BHK,DLhtsen,1252,3.0,3.0,55.0,12.7852528,77.6380931,south
280,280,Built-up  Area,Ready To Move,Gollarapalya Hosahalli,2 BHK,Mauner ,861,2.0,1.0,34.5,12.996150000000057,77.47927000000004,west
281,281,Built-up  Area,Ready To Move,7th Phase JP Nagar,3 BHK,Brnia G,1420,2.0,1.0,100.0,12.912432,77.5759515,south
282,282,Plot  Area,Ready To Move,Srirampura,6 Bedroom,,1450,6.0,0.0,250.0,12.9965731,77.5632018,north west
283,283,Built-up  Area,Ready To Move,Electronics City Phase 1,3 BHK,GaicaVe,1490,3.0,1.0,78.8,12.8496783,77.6649749,south east
284,284,Super built-up  Area,Ready To Move,Bisuvanahalli,3 BHK,,1075,2.0,1.0,46.0,13.237580000000037,77.56019000000003,north
285,285,Super built-up  Area,18-Aug,Old Madras Road,3 BHK,Saesttt,1425,2.0,2.0,94.0,13.0263229,77.7205146,east
286,286,Built-up  Area,Ready To Move,Kalena Agrahara,2 BHK,Nae 2El,1200,2.0,1.0,40.0,12.8661075,77.59192,south
287,287,Super built-up  Area,Ready To Move,Kaggadasapura,3 BHK,,1280,2.0,2.0,56.0,12.9846713,77.6790908,east
288,288,Super built-up  Area,Ready To Move,Silver Springs Layout,2 BHK,Bhinglv,1084,2.0,2.0,50.0,12.9157034,77.52755355,south west
289,289,Super built-up  Area,18-Jul,Chandapura,2 BHK,SunceEs,1015,2.0,2.0,25.88,12.8004439,77.7062826,south east
290,290,Super built-up  Area,21-May,Kanakpura Road,2 BHK,GolusLi,1017,2.0,1.0,51.25,12.88576665,77.55275290187642,south
291,291,Super built-up  Area,Ready To Move,Haralur Road,2 BHK,,1027,2.0,2.0,44.0,12.8922203,77.6558048,south east
292,292,Super built-up  Area,Ready To Move,Electronic City Phase II,2 BHK,Coush W,1069,2.0,2.0,45.0,12.8468545,77.6769267,south east
293,293,Super built-up  Area,Ready To Move,Hebbal,2 BHK,Prersis,1349,2.0,1.0,98.2,13.0382184,77.5919,north
294,294,Super built-up  Area,Ready To Move,9th Phase JP Nagar,2 BHK,NaensGa,1005,2.0,1.0,50.0,12.9104123,77.59751,south
295,295,Super built-up  Area,Ready To Move,Jakkur,2 BHK,Arzzo P,1417,2.0,3.0,75.0,13.0784743,77.6068938,north
296,296,Plot  Area,18-Jan,TC Palaya,3 Bedroom,,1475,3.0,1.0,98.0,13.0098552,77.6930892,east
297,297,Carpet  Area,Ready To Move,Maruthi Sevanagar,2 BHK,SMikaay,950,2.0,2.0,47.0,13.0011184,77.632846,north east
298,298,Super built-up  Area,Ready To Move,RMV 2nd Stage,4 BHK,Prave E,2000,4.0,0.0,120.0,13.0299868,77.574051,north
299,299,Plot  Area,Ready To Move,Giri Nagar,3 Bedroom,,880,3.0,1.0,140.0,12.942790000000059,77.54122000000007,south west
300,300,Super built-up  Area,Ready To Move,Sarjapur  Road,4 BHK,Ahriaup,1863,3.0,2.0,104.0,12.920441,77.6653284,south east
301,301,Super built-up  Area,Ready To Move,Singasandra,2 BHK,Priewhi,1010,2.0,1.0,29.5,12.88027485,77.65475374894244,south east
302,302,Super built-up  Area,Ready To Move,Kalena Agrahara,3 BHK,Shodsth,1425,2.0,1.0,70.0,12.8661075,77.59192,south
303,303,Super built-up  Area,Ready To Move,Vijayanagar,3 BHK,Swadeh ,1450,3.0,0.0,100.0,12.9718886,77.54578883887129,west
304,304,Super built-up  Area,Ready To Move,Kothanur,3 BHK,Somumys,1847,3.0,2.0,105.0,13.0613601,77.6493895,north east
305,305,Super built-up  Area,Ready To Move,AECS Layout,2 BHK,Soran U,1100,2.0,3.0,45.0,12.964118,77.7130369,east
306,306,Super built-up  Area,20-Dec,Kanakpura Road,1 BHK,PrarePa,525,1.0,1.0,26.0,12.88576665,77.55275290187642,south
307,307,Super built-up  Area,Ready To Move,Mallasandra,3 BHK,Puestig,1665,3.0,2.0,95.0,13.0081486,77.7837101,east
308,308,Super built-up  Area,Ready To Move,Begur,4 BHK,Prntsrt,1664,4.0,3.0,65.0,12.8633887,77.61301120503904,south
309,309,Super built-up  Area,Ready To Move,JP Nagar,3 BHK,Maerar ,1850,3.0,3.0,150.0,12.9072515,77.5782713,south
310,310,Super built-up  Area,Ready To Move,Panathur,2 BHK,Vaesh T,1438,2.0,3.0,100.0,12.9351457,77.7047541,east
311,311,Super built-up  Area,Ready To Move,Sunder Ram Shetty Nagar,3 BHK,MaisePa,1560,3.0,3.0,115.0,12.895160000000033,77.60879000000006,south
312,312,Super built-up  Area,18-Apr,Yelahanka,2 BHK,,1350,2.0,1.0,55.55,13.1006982,77.5963454,north
313,313,Super built-up  Area,Ready To Move,Kanakpura Road,3 BHK,JRrnauv,1550,3.0,3.0,67.0,12.88576665,77.55275290187642,south
314,314,Super built-up  Area,18-Apr,Malleshpalya,2 BHK,,1140,2.0,2.0,46.5,12.9744129,77.6743533,east
315,315,Plot  Area,Ready To Move,Srirampura,5 Bedroom,,1200,5.0,2.0,180.0,12.9965731,77.5632018,north west
316,316,Super built-up  Area,18-Dec,Kodathi,2 BHK,,850,2.0,2.0,27.0,12.89124215,77.7099041045108,south east
317,317,Super built-up  Area,Ready To Move,Whitefield,2 BHK,Gotis A,1280,2.0,2.0,75.0,12.9696365,77.7497448,east
318,318,Built-up  Area,Ready To Move,Munnekollal,2 BHK,,1170,2.0,2.0,52.0,12.94894000000005,77.70930000000004,east
319,319,Super built-up  Area,Ready To Move,Motappa Layout,2 BHK,Puodse ,1113,2.0,1.0,51.0,22.34505000000007,85.29885000000007,north east
320,320,Super built-up  Area,Ready To Move,Hennur Road,2 BHK,Mileeou,1385,2.0,1.0,83.09,13.0398416,77.6413592,north east
321,321,Super built-up  Area,18-Apr,Electronic City,2 BHK,Prarkun,1128,2.0,1.0,65.0,12.848759900000001,77.64825295827616,south east
322,322,Plot  Area,Ready To Move,Marathahalli,2 Bedroom,,1200,2.0,2.0,128.0,12.9552572,77.6984163,east
323,323,Plot  Area,Ready To Move,Akshaya Vana,4 Bedroom,,1200,4.0,3.0,165.0,18.52839000000006,73.87657000000007,north west
324,324,Super built-up  Area,Ready To Move,Rajaji Nagar,3 BHK,PhestOn,2390,3.0,2.0,415.0,12.9995223,77.5505328,north west
325,325,Plot  Area,Ready To Move,Giri Nagar,4 Bedroom,,2400,4.0,1.0,400.0,12.942790000000059,77.54122000000007,south west
326,326,Super built-up  Area,Ready To Move,Haralur Road,3 BHK,NRowse ,1464,3.0,2.0,56.0,12.8922203,77.6558048,south east
327,327,Super built-up  Area,Ready To Move,Manayata Tech Park,2 BHK,,1200,2.0,2.0,55.0,13.0454341,77.6267753,north east
328,328,Super built-up  Area,Ready To Move,Kaval Byrasandra,2 BHK,Abncy R,1200,2.0,2.0,52.0,13.0200235,77.6092887,north east
329,329,Super built-up  Area,Ready To Move,Kaggalipura,3 BHK,Baowsig,1150,2.0,1.0,55.0,12.8016986,77.5082445,south
330,330,Built-up  Area,Ready To Move,Basavanna Nagar,3 BHK,Itala A,1645,3.0,2.0,95.0,12.988866999999999,77.72020451035232,east
331,331,Super built-up  Area,20-Mar,Sarjapur  Road,2 BHK,,1000,2.0,1.0,67.0,12.920441,77.6653284,south east
332,332,Plot  Area,Ready To Move,Haralur Road,4 Bedroom,,2650,4.0,2.0,198.0,12.8922203,77.6558048,south east
333,333,Super built-up  Area,Ready To Move,6th Phase JP Nagar,2 BHK,HMinebo,1192,2.0,2.0,74.0,12.9133333,77.578314,south
334,334,Super built-up  Area,Ready To Move,Ulsoor,3 BHK,K borja,2135,3.0,2.0,215.0,12.9778793,77.6246697,east
335,335,Super built-up  Area,19-Dec,Whitefield,2 BHK,Oreldhi,1173,2.0,1.0,58.0,12.9696365,77.7497448,east
336,336,Built-up  Area,Ready To Move,Uttarahalli,2 BHK,Sungspr,1020,2.0,2.0,45.0,12.9055682,77.5455438,south west
337,337,Super built-up  Area,Ready To Move,Thigalarapalya,4 BHK,Prtanha,3122,6.0,2.0,230.0,13.0137105,77.4834544,north west
338,338,Super built-up  Area,Ready To Move,Somasundara Palya,3 BHK,,1600,3.0,3.0,64.0,12.89694000000003,77.65592000000004,south east
339,339,Plot  Area,18-Mar,T.C PALYA,2 Bedroom,,1200,2.0,0.0,79.0,13.023040000000037,77.70012000000008,north east
340,340,Carpet  Area,Ready To Move,Muneshwara Nagar,2 BHK,,1230,2.0,3.0,48.0,13.014081149999999,77.61147441571453,north east
341,341,Super built-up  Area,Ready To Move, Devarachikkanahalli,2 BHK,Clntsrt,1250,2.0,2.0,40.0,12.8855932,77.6101723,south
342,342,Super built-up  Area,Ready To Move,Kalena Agrahara,2 BHK,PuamaPa,1325,2.0,2.0,76.0,12.8661075,77.59192,south
343,343,Built-up  Area,Ready To Move,7th Phase JP Nagar,3 BHK,Brngsal,1850,3.0,1.0,150.0,12.912432,77.5759515,south
344,344,Super built-up  Area,21-Dec,Kanakpura Road,1 BHK,PrarePa,525,,,21.53,12.88576665,77.55275290187642,south
345,345,Super built-up  Area,Ready To Move,Basaveshwara Nagar,2 BHK,,1200,2.0,2.0,65.0,12.9931607,77.5394749,north west
346,346,Plot  Area,Ready To Move,Bull Temple Road,3 Bedroom,,1350,2.0,0.0,140.0,12.9460365,77.5678687,south west
347,347,Super built-up  Area,18-Jun,Bommasandra,3 BHK,SSestth,1260,3.0,1.0,49.36,12.8162443,77.6916113,south east
348,348,Super built-up  Area,Ready To Move,Prashanth Nagar,3 BHK,Vancy R,1800,3.0,0.0,150.0,12.9776188,77.5313254,west
349,349,Plot  Area,18-Dec,Suragajakkanahalli,3 Bedroom,PrhyaK ,11,3.0,2.0,74.0,12.7397994,77.6691417,south
350,350,Built-up  Area,Ready To Move,Ardendale,2 BHK,Miwel M,1100,2.0,1.0,43.25,13.026135,77.76638437071601,east
351,351,Super built-up  Area,Ready To Move,Harlur,2 BHK,SrEndPo,1508,2.0,1.0,77.0,12.90593265,77.6754493561861,south east
352,352,Carpet  Area,Ready To Move,Sampigehalli,3 BHK,Puens G,1592,3.0,2.0,75.0,13.0816353,77.6182669,north
353,353,Super built-up  Area,Ready To Move,Akshaya Nagar,2 BHK,SagasSa,1388,2.0,3.0,57.0,13.0195427,77.6831272,north east
354,354,Super built-up  Area,18-May,Electronic City Phase II,1 BHK,SNbay G,630,1.0,1.0,28.35,12.8468545,77.6769267,south east
355,355,Plot  Area,Ready To Move,RMV,3 Bedroom,,2000,3.0,2.0,365.0,13.0321435,77.5734663,north
356,356,Super built-up  Area,Ready To Move,Banashankari3rd stage bigbazar,3 BHK,,1762,3.0,1.0,125.0,12.926630000000046,77.55083000000008,south west
357,357,Super built-up  Area,21-Dec,Bagalur Main Road,2 BHK,,950,2.0,2.0,50.0,12.961005674287733,77.59082686157839,south east
358,358,Super built-up  Area,Ready To Move,Kodihalli,4 BHK,Soianal,3252,5.0,3.0,335.0,12.9624481,77.6463772,east
359,359,Super built-up  Area,18-Aug,Magadi Road,2 BHK,Vrenty ,1116,2.0,1.0,50.0,12.9756527,77.5553548,west
360,360,Super built-up  Area,Ready To Move,Narayanapura,2 BHK,AriosHe,1308,2.0,2.0,89.04,13.3397035,77.763495,north east
361,361,Super built-up  Area,Ready To Move,MS Pallya,3 BHK,,1200,3.0,0.0,90.0,13.089650000000063,77.54331000000008,north
362,362,Plot  Area,Ready To Move,Binny Mills Employees Colony,4 Bedroom,,1500,4.0,2.0,230.0,29.672660000000064,75.56749000000008,north
363,363,Built-up  Area,Ready To Move,Bannerghatta Road,1 BHK,,500,1.0,1.0,18.5,12.8905219,77.598149,south
364,364,Super built-up  Area,Ready To Move,Hennur,2 BHK,SLureSi,1075,2.0,1.0,52.0,13.0258087,77.6305067,north east
365,365,Super built-up  Area,18-Mar,Chandapura,1 BHK,Siissi ,530,1.0,0.0,11.66,12.8004439,77.7062826,south east
366,366,Built-up  Area,Ready To Move,Bellandur,2 BHK,,1205,2.0,3.0,66.0,12.9279555,77.6807658,south east
367,367,Super built-up  Area,Ready To Move,5th Phase JP Nagar,2 BHK,Mangsr ,1075,2.0,2.0,60.0,12.9118678,77.5765347,south
368,368,Built-up  Area,Ready To Move,KR Puram,2 BHK,HovasTe,930,2.0,2.0,39.0,13.007516,77.695935,east
369,369,Super built-up  Area,Ready To Move,Balagere,2 BHK,Exncene,1380,2.0,1.0,60.0,12.9377243,77.7280705,east
370,370,Super built-up  Area,Ready To Move,Hebbal,4 BHK,Prersis,2483,5.0,2.0,212.0,13.0382184,77.5919,north
371,371,Built-up  Area,Ready To Move,Kodigehaali,2 BHK,Shyas S,1166,2.0,2.0,55.0,13.065830000000062,77.57217000000009,north
372,372,Super built-up  Area,Ready To Move,Bannerghatta Road,2 BHK,NadelCi,1050,2.0,1.0,65.0,12.8905219,77.598149,south
373,373,Super built-up  Area,19-Mar,Gopalapura,3 BHK,Sothadr,2023.71,3.0,2.0,275.0,13.1331985,77.6874906,north east
374,374,Super built-up  Area,Ready To Move,Begur Road,2 BHK,Dhalsh ,1200,2.0,2.0,46.8,12.8767919,77.6258806,south east
375,375,Super built-up  Area,Ready To Move,Lakshminarayana Pura,3 BHK,Puarent,1600,2.0,1.0,108.0,12.827890000000025,76.90970000000004,west
376,376,Super built-up  Area,Ready To Move,Billekahalli,3 BHK,MaionPa,1935,3.0,2.0,110.0,12.90008000000006,77.60432000000003,south
377,377,Super built-up  Area,18-May,8th Phase JP Nagar,1 BHK,Maian M,451,1.0,0.0,29.9,12.9167948,77.595038,south
378,378,Super built-up  Area,Ready To Move,Electronic City,3 BHK,ShstaAl,1800,3.0,2.0,95.0,12.848759900000001,77.64825295827616,south east
379,379,Super built-up  Area,18-May,Jalahalli,3 BHK,Shard T,1400,3.0,0.0,77.0,13.0464531,77.5483803,north west
380,380,Super built-up  Area,Ready To Move,Hegde Nagar,3 BHK,SoitaCa,1801,3.0,2.0,115.0,13.0720352,77.6333905,north east
381,381,Built-up  Area,Ready To Move,Mahadevpura,2 BHK,Neagar ,1451,2.0,,90.0,12.9936177,77.6856673,east
382,382,Plot  Area,19-Jan,Anekal,2 Bedroom,,1200,1.0,1.0,36.0,12.799122,77.68060437921743,south east
383,383,Super built-up  Area,Ready To Move,Begur Road,2 BHK,Dhalsh ,1160,2.0,2.0,44.0,12.8767919,77.6258806,south east
384,384,Built-up  Area,Ready To Move,Kengeri,2 BHK,,1000,2.0,1.0,25.0,12.9176571,77.4837568,south west
385,385,Super built-up  Area,Ready To Move,Kanakpura Road,2 BHK,Wiowsri,950,2.0,1.0,40.0,12.88576665,77.55275290187642,south
386,386,Built-up  Area,20-Dec,"Hoodi Circle, ",3 BHK,,1629,3.0,2.0,79.0,12.99196225,77.7154228382988,east
387,387,Built-up  Area,Ready To Move,Vijayanagar,3 BHK,,1580,2.0,0.0,134.0,12.9718886,77.54578883887129,west
388,388,Super built-up  Area,21-Jun,Vijayanagar,3 BHK,Saityat,1826,3.0,2.0,121.0,12.9718886,77.54578883887129,west
389,389,Built-up  Area,Ready To Move,7th Phase JP Nagar,2 BHK,Eladero,1245,2.0,1.0,94.0,12.912432,77.5759515,south
390,390,Super built-up  Area,Ready To Move,Raja Rajeshwari Nagar,2 BHK,Lancyey,1145,2.0,2.0,45.79,12.858390000000043,80.18606000000005,east
391,391,Super built-up  Area,Ready To Move,Sompura,2 BHK,Suiseit,825,2.0,1.0,33.0,12.8778283,77.4972385,south west
392,392,Super built-up  Area,18-Aug,Yeshwanthpur,3 BHK,Aroomba,1693,3.0,3.0,108.0,13.0371162,77.5280547,north west
393,393,Super built-up  Area,Ready To Move,Electronics City Phase 1,2 BHK,Courf T,1113.27,2.0,2.0,53.0,12.8496783,77.6649749,south east
394,394,Built-up  Area,Ready To Move,Ashirvad Colony,2 BHK,VMowsea,1460,2.0,1.0,58.0,26.20646000000005,78.14620000000008,north
395,395,Built-up  Area,Ready To Move,Doddathoguru,2 BHK,S onsMa,1050,2.0,1.0,32.0,12.8529125,77.6556155,south east
396,396,Built-up  Area,Ready To Move,Dodda Nekkundi,2 BHK,Tuentpa,1260,2.0,2.0,55.0,12.96577205,77.70809738675412,east
397,397,Super built-up  Area,Ready To Move,K N Extension,6 BHK,,700,3.0,,120.0,13.021730000000048,77.55721000000005,north west
398,398,Built-up  Area,Ready To Move,Hosur Road,2 BHK,Tovesee,1656,2.0,1.0,120.0,12.9527111,77.6052566,south east
399,399,Super built-up  Area,Ready To Move,Chandapura,3 BHK,Vailsaf,1208,3.0,1.0,45.0,12.8004439,77.7062826,south east
400,400,Super built-up  Area,Ready To Move,Whitefield,3 BHK,BrlisCo,1910,3.0,2.0,161.0,12.9696365,77.7497448,east
401,401,Super built-up  Area,Ready To Move,Whitefield,4 BHK,Haestt ,3252,4.0,1.0,230.0,12.9696365,77.7497448,east
402,402,Plot  Area,Ready To Move,Battarahalli,2 Bedroom,,1200,2.0,1.0,65.0,13.020020000000045,77.70975000000004,east
403,403,Super built-up  Area,Ready To Move,Gokula Extension,4 BHK,,1200,4.0,1.0,175.0,13.041120000000035,77.54829000000007,north west
404,404,Super built-up  Area,Ready To Move,7th Phase JP Nagar,2 BHK,BriumMi,1175,2.0,1.0,82.0,12.912432,77.5759515,south
405,405,Plot  Area,Ready To Move,Kamakshipalya,2 Bedroom,,1000,2.0,0.0,165.0,12.9823617,77.5226376,west
406,406,Plot  Area,Ready To Move,Bannerghatta Road,4 Bedroom,,1200,2.0,0.0,125.0,12.8905219,77.598149,south
407,407,Super built-up  Area,Ready To Move,Rajaji Nagar,3 BHK,PhestOn,2390,3.0,2.0,410.0,12.9995223,77.5505328,north west
408,408,Super built-up  Area,19-Jan,Rajaji Nagar,7 BHK,,12000,6.0,3.0,2200.0,12.9995223,77.5505328,north west
409,409,Plot  Area,Ready To Move,Sultan Palaya,2 Bedroom,,550,1.0,1.0,62.0,13.022560000000055,77.60166000000004,north
410,410,Super built-up  Area,Ready To Move,Kengeri,1 BHK,,34.46Sq. Meter,1.0,0.0,18.5,12.9176571,77.4837568,south west
411,411,Super built-up  Area,Ready To Move,Sanne Amanikere,2 BHK,Hoxiaa ,1185,2.0,,38.0,,,
412,412,Super built-up  Area,Ready To Move,Kengeri,2 BHK,VBvenal,750,2.0,1.0,38.0,12.9176571,77.4837568,south west
413,413,Plot  Area,Ready To Move,Mahalakshmi Layout,6 Bedroom,,1200,7.0,3.0,250.0,13.0113153,77.5446972,north west
414,414,Super built-up  Area,Ready To Move,Kanakpura Road,3 BHK,JRrnauv,1550,3.0,3.0,64.5,12.88576665,77.55275290187642,south
415,415,Built-up  Area,Ready To Move,Amco Colony,3 BHK,Hoeatan,1760,3.0,2.0,88.0,32.78179000000006,95.68801999999994,north east
416,416,Super built-up  Area,Ready To Move,Billekahalli,2 BHK,Asity S,1125,2.0,2.0,62.0,12.90008000000006,77.60432000000003,south
417,417,Plot  Area,Ready To Move,Nagarbhavi,3 Bedroom,,1350,3.0,2.0,150.0,12.95961755,77.51126721318181,west
418,418,Plot  Area,17-Dec,Anandapura,2 Bedroom,,1000,2.0,1.0,55.0,13.0239276,77.6923621,north east
419,419,Built-up  Area,18-Aug,Bommasandra Industrial Area,2 BHK,,1090,2.0,2.0,31.48,12.81114,77.6634021,south east
420,420,Plot  Area,Ready To Move,TC Palaya,2 Bedroom,,1200,2.0,0.0,60.0,13.0098552,77.6930892,east
421,421,Super built-up  Area,Ready To Move,Budigere,3 BHK,PrityTr,1991,4.0,2.0,103.0,13.1351402,77.74957,north east
422,422,Super built-up  Area,18-Oct,Bommasandra,2 BHK,DSoodil,1060,2.0,1.0,26.5,12.8162443,77.6916113,south east
423,423,Super built-up  Area,Ready To Move,Ambalipura,2 BHK,SJarkte,1105,2.0,1.0,75.0,12.9173303,77.667161,south east
424,424,Built-up  Area,Ready To Move,Hoodi,2 BHK,Dhgraas,985,2.0,2.0,67.0,12.9919033,77.7162015,east
425,425,Plot  Area,Ready To Move,Chandapura,6 Bedroom,,1533,5.0,3.0,85.0,12.8004439,77.7062826,south east
426,426,Super built-up  Area,17-Jul,Balagere,3 BHK,HiqueMa,1590,3.0,2.0,79.0,12.9377243,77.7280705,east
427,427,Super built-up  Area,Ready To Move,CV Raman Nagar,2 BHK,Srshq T,1120,2.0,2.0,55.0,12.9856596,77.6638971,east
428,428,Super built-up  Area,Ready To Move,Samethanahalli,2 BHK,SPontna,1069,2.0,1.0,55.0,12.979363,77.7907328,east
429,429,Super built-up  Area,Ready To Move,Marathahalli,3 BHK,Prionad,1933,3.0,2.0,140.0,12.9552572,77.6984163,east
430,430,Built-up  Area,16-Mar,Hosur Road,2 BHK,PuendWe,1194,2.0,0.0,69.0,12.9527111,77.6052566,south east
431,431,Super built-up  Area,Ready To Move,Brookefield,2 BHK,Danna S,1150,2.0,3.0,69.0,12.9668213,77.7168891,east
432,432,Super built-up  Area,Ready To Move,Yelenahalli,2 BHK,,1240,2.0,2.0,47.12,12.8669074,77.6159019,south
433,433,Super built-up  Area,Ready To Move,Raja Rajeshwari Nagar,2 BHK,GrrvaGr,1419,2.0,2.0,48.1,12.858390000000043,80.18606000000005,east
434,434,Plot  Area,Ready To Move,7th Phase JP Nagar,8 Bedroom,,1200,8.0,,250.0,12.912432,77.5759515,south
435,435,Super built-up  Area,Ready To Move,Richmond Town,3 BHK,Bltonin,2150,4.0,,240.0,12.9626925,77.6041603,south east
436,436,Super built-up  Area,Ready To Move,Suddaguntepalya,3 BHK,MSanaer,1450,3.0,2.0,55.0,12.98389000000003,77.65476000000007,east
437,437,Super built-up  Area,18-Jul,Udayapur Village,3 BHK,Plowsri,1630,3.0,2.0,68.29,28.038050000000055,81.64951000000008,north
438,438,Super built-up  Area,Ready To Move,Dasanapura,2 BHK,Tavenew,708,1.0,1.0,40.0,13.0758896,77.4364795,north west
439,439,Plot  Area,Ready To Move,Kasavanhalli,3 Bedroom,,1000,4.0,3.0,110.0,12.9047595,77.6759172,south east
440,440,Plot  Area,Ready To Move,Whitefield,4 Bedroom,,11890,4.0,3.0,700.0,12.9696365,77.7497448,east
441,441,Super built-up  Area,Ready To Move,Bellandur,2 BHK,Ocavees,1250,2.0,1.0,76.0,12.9279555,77.6807658,south east
442,442,Super built-up  Area,Ready To Move,7th Phase JP Nagar,3 BHK,Brnia G,1400,2.0,1.0,95.0,12.912432,77.5759515,south
443,443,Super built-up  Area,Ready To Move,Sarjapur  Road,3 BHK,,1670,2.0,3.0,57.0,12.920441,77.6653284,south east
444,444,Super built-up  Area,Ready To Move,Ardendale,3 BHK,SoystAm,1750,3.0,2.0,100.0,13.026135,77.76638437071601,east
445,445,Super built-up  Area,Ready To Move,Vittasandra,2 BHK,Prlla C,1404,2.0,1.0,71.0,12.8533901,77.6383481,south east
446,446,Super built-up  Area,Ready To Move,Hoodi,3 BHK,SMaxyay,1715,2.0,2.0,95.0,12.9919033,77.7162015,east
447,447,Built-up  Area,18-Apr,Electronic City,1 BHK,Prarkun,630,1.0,1.0,34.65,12.848759900000001,77.64825295827616,south east
448,448,Super built-up  Area,Ready To Move,Harlur,3 BHK,SosicCl,1752.12,3.0,2.0,135.0,12.90593265,77.6754493561861,south east
449,449,Super built-up  Area,Ready To Move,Hulimavu,3 BHK,,1650,3.0,2.0,78.0,12.8773486,77.6028031,south
450,450,Super built-up  Area,Ready To Move,Raja Rajeshwari Nagar,2 BHK,GrrvaGr,1295,2.0,1.0,55.47,12.858390000000043,80.18606000000005,east
451,451,Plot  Area,Ready To Move,Giri Nagar,3 Bedroom,Bancyri,1800,3.0,2.0,252.0,12.942790000000059,77.54122000000007,south west
452,452,Super built-up  Area,18-Sep,Sarjapur  Road,2 BHK,PualeSk,1346,2.0,1.0,74.03,12.920441,77.6653284,south east
453,453,Plot  Area,Ready To Move,Thippasandra,4 Bedroom,,1200,4.0,2.0,200.0,12.973936,77.6509982,east
454,454,Super built-up  Area,Ready To Move,Hormavu,2 BHK,ElavuHo,1150,2.0,2.0,55.0,13.0216149,77.6574918,north east
455,455,Built-up  Area,Ready To Move,Chikkabidarakallu,4 Bedroom,Gontyol,3309,4.0,3.0,325.0,13.0491569,77.4874879,north west
456,456,Super built-up  Area,18-May,Chandapura,3 BHK,SunceEs,1190,2.0,2.0,30.35,12.8004439,77.7062826,south east
457,457,Super built-up  Area,Ready To Move,AECS Layout,3 BHK,DSutyng,1620,3.0,2.0,98.0,12.964118,77.7130369,east
458,458,Super built-up  Area,18-Apr,Marathahalli,2 BHK,,950,2.0,1.0,46.96,12.9552572,77.6984163,east
459,459,Super built-up  Area,Ready To Move,1 Giri Nagar,11 BHK,Bancyri,5000,9.0,3.0,360.0,13.02754518809214,80.17969314699026,east
460,460,Super built-up  Area,Ready To Move,Harlur,3 BHK,SrEndPo,2450,3.0,0.0,120.0,12.90593265,77.6754493561861,south east
461,461,Super built-up  Area,18-May,Electronic City Phase II,3 BHK,Sryalan,1220,2.0,1.0,35.23,12.8468545,77.6769267,south east
462,462,Super built-up  Area,Ready To Move,Hoysalanagar,2 BHK,RKntsrt,850,2.0,1.0,30.0,12.991460000000075,77.50218000000007,west
463,463,Built-up  Area,Ready To Move,Padmanabhanagar,2 BHK,,1020,2.0,2.0,63.0,12.91814255,77.55767110316643,south
464,464,Built-up  Area,Ready To Move,Chikkalasandra,2 BHK,,1100,2.0,2.0,50.0,12.9121916,77.5476337,south west
465,465,Super built-up  Area,Ready To Move,Defence Colony,2 BHK,Vantspa,1150,2.0,2.0,126.0,12.976171,77.6435315,east
466,466,Super built-up  Area,18-Dec,Hebbal,3 BHK,Mahosya,1760,2.0,2.0,130.0,13.0382184,77.5919,north
467,467,Super built-up  Area,Ready To Move,Ambalipura,3 BHK,,1800,3.0,3.0,110.0,12.9173303,77.667161,south east
468,468,Super built-up  Area,Ready To Move,Akshaya Nagar,2 BHK,,1070,2.0,1.0,54.0,13.0195427,77.6831272,north east
469,469,Plot  Area,Ready To Move,2nd Stage Nagarbhavi,4 Bedroom,,1500,4.0,2.0,220.0,12.980070000000069,77.51133000000004,west
470,470,Plot  Area,Ready To Move,Vidyaranyapura,2 Bedroom,,1440,2.0,0.0,95.0,13.0766407,77.5577315,north
471,471,Super built-up  Area,Ready To Move,Amruthahalli,2 BHK,Prowsi ,900,2.0,1.0,40.0,13.0665131,77.5966238,north
472,472,Built-up  Area,Ready To Move,ITI Employees Layout,4 BHK,,1200,4.0,1.0,230.0,22.34505000000007,85.29885000000007,north east
473,473,Super built-up  Area,18-May,Whitefield,2 BHK,SMuilan,1130,2.0,1.0,42.16,12.9696365,77.7497448,east
474,474,Super built-up  Area,Ready To Move,Koramangala,2 BHK,Proodt ,1320,2.0,1.0,165.0,13.2923988,77.7519261,north east
475,475,Super built-up  Area,19-Jun,Kodigehalli,2 BHK,,1270,2.0,1.0,98.0,13.0031666,77.7272835,east
476,476,Built-up  Area,Ready To Move,Patelappa Layout,2 BHK,Sryamar,1200,2.0,1.0,62.0,13.07298000000003,77.52795000000003,north west
477,477,Super built-up  Area,Ready To Move,Ring Road Nagarbhavi,4 BHK,,4800,4.0,,235.0,12.949450832241098,77.5224663213351,west
478,478,Super built-up  Area,Ready To Move,NS Palya,2 BHK,,1200,2.0,1.0,74.0,12.9889265,77.706995,east
479,479,Super built-up  Area,Ready To Move,Subramanyapura,2 BHK,Prldsri,929,2.0,0.0,50.17,12.914506,77.5604592,south
480,480,Built-up  Area,Ready To Move,RMV 2nd Stage,4 BHK,LiaveEn,1150,4.0,2.0,260.0,13.0299868,77.574051,north
481,481,Plot  Area,Ready To Move,Basavangudi,4 Bedroom,,1125,4.0,3.0,180.0,12.9422105,77.5741507,south
482,482,Plot  Area,Ready To Move,Kenchenahalli,5 Bedroom,,500,3.0,2.0,65.0,12.9120633,77.5136528,south west
483,483,Plot  Area,Ready To Move,3rd Block Hrbr Layout,5 Bedroom,Bemesrm,1200,5.0,2.0,190.0,13.021750000000054,77.63233000000008,north east
484,484,Super built-up  Area,Ready To Move,KUDLU MAIN ROAD,3 BHK,,1464,3.0,2.0,56.0,12.8898296,77.6399476,south east
485,485,Super built-up  Area,Ready To Move,7th Phase JP Nagar,4 BHK,,3600,4.0,3.0,400.0,12.912432,77.5759515,south
486,486,Plot  Area,Ready To Move,Bank Avenue,4 Bedroom,,2000,4.0,2.0,99.0,13.0225678,77.6527986,north east
487,487,Super built-up  Area,Ready To Move,Chikkalasandra,2 BHK,,1208,2.0,1.0,49.0,12.9121916,77.5476337,south west
488,488,Super built-up  Area,Ready To Move,Hebbal Kempapura,2 BHK,Vrensn ,1130,2.0,2.0,60.0,13.0521017,77.6018107,north
489,489,Super built-up  Area,Ready To Move,Surabhi Layout,3 BHK,VDdonel,1753,3.0,2.0,120.0,13.0929358,77.6009735,north
490,490,Super built-up  Area,Ready To Move,Old Madras Road,5 BHK,Brica E,4500,7.0,3.0,337.0,13.0263229,77.7205146,east
491,491,Plot  Area,Ready To Move,Banjara Layout,3 Bedroom,,600,3.0,2.0,58.0,13.0382887,77.6652184,north east
492,492,Super built-up  Area,22-Jun,Hoodi,2 BHK,GoAirej,1196,2.0,2.0,94.42,12.9919033,77.7162015,east
493,493,Built-up  Area,Ready To Move,5th Phase JP Nagar,2 BHK,Prenty ,1150,3.0,3.0,52.5,12.9118678,77.5765347,south
494,494,Super built-up  Area,18-Apr,Electronic City,2 BHK,Prarkun,1128,2.0,1.0,63.0,12.848759900000001,77.64825295827616,south east
495,495,Super built-up  Area,Ready To Move,Omkar Nagar,2 BHK,Shinei ,1000,2.0,1.0,53.0,12.8901067,77.597049,south
496,496,Super built-up  Area,Ready To Move,Yelahanka,2 BHK,Apows M,1035,2.0,1.0,45.0,13.1006982,77.5963454,north
497,497,Built-up  Area,Ready To Move,Kereguddadahalli,2 BHK,,950,2.0,1.0,32.0,13.078950000000077,77.51662000000005,north west
498,498,Super built-up  Area,Ready To Move,Bisuvanahalli,3 BHK,Prityel,1075,2.0,1.0,36.0,13.237580000000037,77.56019000000003,north
499,499,Super built-up  Area,Ready To Move,Whitefield,2 BHK,SVineun,1040,2.0,1.0,48.5,12.9696365,77.7497448,east
500,500,Plot  Area,17-Oct,Maragondanahalli,2 Bedroom,,720,2.0,1.0,45.0,13.2035418,77.5760721,north
501,501,Super built-up  Area,Ready To Move,Lingadheeranahalli,3 BHK,Soiewre,1511,3.0,1.0,95.0,13.00129000000004,77.47907000000004,west
502,502,Built-up  Area,Ready To Move,Silk Board,3 BHK,,1300,3.0,1.0,58.0,12.9167972,77.6235628,south east
503,503,Super built-up  Area,19-Dec,Hoodi,3 BHK,Caycend,1545,3.0,1.0,68.75,12.9919033,77.7162015,east
504,504,Built-up  Area,Ready To Move,Shampura,1 BHK,,375,2.0,0.0,26.0,13.0272035,77.6140682,north east
505,505,Super built-up  Area,Ready To Move,Vidyaranyapura,2 BHK,,1062,2.0,3.0,38.0,13.0766407,77.5577315,north
506,506,Super built-up  Area,Ready To Move,Kada Agrahara,2 BHK,,1115,2.0,1.0,40.0,12.862490000000037,77.76493000000005,south east
507,507,Super built-up  Area,Ready To Move,JP Nagar,2 BHK,DSvvyx ,1000,2.0,1.0,35.0,12.9072515,77.5782713,south
508,508,Super built-up  Area,17-May,Kambipura,2 BHK,Prrtht ,883,2.0,1.0,45.0,12.8726196,77.4615524,south west
509,509,Super built-up  Area,19-Apr,Sarjapur  Road,2 BHK,Brareio,1195,2.0,1.0,70.0,12.920441,77.6653284,south east
510,510,Plot  Area,Ready To Move,BHEL Layout,4 Bedroom,,1200,3.0,1.0,165.0,12.9184375,77.5092496,south west
511,511,Built-up  Area,Ready To Move,Medahalli,1 Bedroom,,700,1.0,0.0,41.0,13.0278454,77.7206079,east
512,512,Super built-up  Area,Ready To Move,Vittasandra,2 BHK,Prlla C,1246,2.0,1.0,67.0,12.8533901,77.6383481,south east
513,513,Plot  Area,Ready To Move,8th Phase JP Nagar,4 Bedroom,,660,4.0,2.0,90.0,12.9167948,77.595038,south
514,514,Plot  Area,Ready To Move,Banashankari Stage III,4 Bedroom,,8500,4.0,2.0,145.0,12.926830000000052,77.55017000000004,south west
515,515,Super built-up  Area,Ready To Move,Kashi Nagar,4 BHK,,1600,4.0,1.0,80.0,12.9877862,77.5744684,north
516,516,Super built-up  Area,18-Dec,Haralur Road,4 BHK,SNnia E,2805,5.0,3.0,154.0,12.8922203,77.6558048,south east
517,517,Super built-up  Area,Ready To Move,Begur Road,3 BHK,,1584,3.0,,65.0,12.8767919,77.6258806,south east
518,518,Plot  Area,Ready To Move,Sector 7 HSR Layout,4 Bedroom,,3000,5.0,1.0,275.0,12.9096955,77.6361042,south east
519,519,Built-up  Area,Ready To Move,Hosur Road,3 BHK,,1175,2.0,2.0,48.0,12.9527111,77.6052566,south east
520,520,Built-up  Area,19-Jul,"Yemlur, Old Airport Road, ",3 BHK,,1595,3.0,2.0,115.0,17.461290000000076,78.47209000000004,north
521,521,Super built-up  Area,Ready To Move,VHBCS Layout,2 BHK,OlarkLa,1353,2.0,2.0,110.0,13.073150000000055,77.62791000000004,north east
522,522,Super built-up  Area,18-Apr,Electronic City,3 BHK,Prarkun,1599,3.0,2.0,125.0,12.848759900000001,77.64825295827616,south east
523,523,Super built-up  Area,Ready To Move,Whitefield,2 BHK,SuMTBPr,1150,2.0,1.0,70.0,12.9696365,77.7497448,east
524,524,Super built-up  Area,17-Dec,Jakkur,4 BHK,Lecco C,5230,6.0,1.0,465.0,13.0784743,77.6068938,north
525,525,Super built-up  Area,Ready To Move,KR Puram,2 BHK,Jahidva,1155,2.0,2.0,42.74,13.007516,77.695935,east
526,526,Built-up  Area,Ready To Move,Ittamadu,1 BHK,,1200,2.0,0.0,85.0,12.9250047,77.5444573,south west
527,527,Super built-up  Area,18-Jul,Electronic City Phase II,2 BHK,,1000,2.0,1.0,25.0,12.8468545,77.6769267,south east
528,528,Super built-up  Area,Ready To Move,Thanisandra,4 BHK,,3000,4.0,,120.0,13.054713,77.6339258,north east
529,529,Built-up  Area,Ready To Move,Rajiv Nagar,3 BHK,PuoodSk,1867,3.0,1.0,160.0,12.92628595,77.59232380254548,south
530,530,Super built-up  Area,18-Jun,Ramagondanahalli,2 BHK,ViistLa,1251,2.0,1.0,47.0,12.9558969,77.7405826,east
531,531,Super built-up  Area,18-Apr,Gattahalli,2 BHK,Arano M,1028,2.0,1.0,45.5,12.8727287,77.6944566767053,south east
532,532,Super built-up  Area,Ready To Move,Arekere,2 BHK,Amngsag,1222,2.0,2.0,45.0,12.8872086,77.5960493,south
533,533,Super built-up  Area,Ready To Move,Bannerghatta Road,3 BHK,SNity S,1170,2.0,1.0,66.0,12.8905219,77.598149,south
534,534,Super built-up  Area,Ready To Move,Hebbal,3 BHK,Kacesh ,2400,4.0,1.0,245.0,13.0382184,77.5919,north
535,535,Super built-up  Area,Ready To Move,Ramanjaneyanagar,3 BHK,,1385,2.0,2.0,48.48,17.226110000000062,80.14895000000007,north east
536,536,Super built-up  Area,Ready To Move,HSR Layout,2 BHK,SrisePo,1372,2.0,1.0,68.0,12.9116225,77.6388622,south east
537,537,Super built-up  Area,Ready To Move,Magadi Road,3 BHK,Bilya A,1282,2.0,2.0,49.0,12.9756527,77.5553548,west
538,538,Super built-up  Area,Ready To Move,Mico Layout,9 BHK,Amsomun,5000,9.0,3.0,210.0,12.9128289,77.6028358,south
539,539,Built-up  Area,Ready To Move,7th Block Jayanagar,5 Bedroom,,3000,3.0,1.0,528.0,12.9254648,77.5775504,south
540,540,Super built-up  Area,Ready To Move,Kanakpura Road,2 BHK,Shdhia ,1135,2.0,1.0,39.73,12.88576665,77.55275290187642,south
541,541,Built-up  Area,20-Dec,Whitefield,3 BHK,,1768,3.0,2.0,101.0,12.9696365,77.7497448,east
542,542,Built-up  Area,Ready To Move,Byatarayanapura,3 BHK,Foconna,1325,2.0,1.0,90.0,13.0666526,77.591967,north
543,543,Super built-up  Area,18-Apr,Electronic City,3 BHK,Prarkun,1599,3.0,2.0,99.0,12.848759900000001,77.64825295827616,south east
544,544,Plot  Area,18-Mar,Whitefield,3 Bedroom,,1500,3.0,1.0,61.95,12.9696365,77.7497448,east
545,545,Plot  Area,Ready To Move,2nd Phase JP Nagar,3 Bedroom,,2610,3.0,0.0,499.0,12.91226375,77.59045672324466,south
546,546,Super built-up  Area,Ready To Move,Uttarahalli,2 BHK,,1286,2.0,2.0,63.0,12.9055682,77.5455438,south west
547,547,Built-up  Area,Ready To Move,Kammanahalli,5 BHK,,2845,5.0,1.0,140.0,13.0093455,77.6377094,north east
548,548,Super built-up  Area,Ready To Move,K G Colony,3 BHK,Aincy R,1600,2.0,,50.0,12.084640000000036,77.29937000000007,south
549,549,Super built-up  Area,18-Sep,Hennur Road,2 BHK,Shxorm ,1195 - 1440,2.0,0.0,63.77,13.0398416,77.6413592,north east
550,550,Super built-up  Area,Ready To Move,Hebbal,3 BHK,Brium C,3450,5.0,2.0,260.0,13.0382184,77.5919,north
551,551,Super built-up  Area,18-Apr,Munnekollal,2 BHK,Sadhii ,1102,2.0,2.0,53.67,12.94894000000005,77.70930000000004,east
552,552,Super built-up  Area,Ready To Move,Yelahanka,2 BHK,Sahanra,1350,2.0,2.0,54.0,13.1006982,77.5963454,north
553,553,Super built-up  Area,Ready To Move,Banashankari,3 BHK,,1200,2.0,2.0,42.0,12.965283249999999,77.59445195,south east
554,554,Plot  Area,Ready To Move,Hosa Road,6 Bedroom,,1300,6.0,0.0,145.0,12.8706073,77.6540565,south east
555,555,Plot  Area,Ready To Move,Herohalli,2 Bedroom,,1800,1.0,1.0,80.0,12.9912345,77.4870119,west
556,556,Built-up  Area,Ready To Move,Chikkabanavar,2 BHK,,950,2.0,1.0,40.0,13.08155000000005,77.50293000000005,north west
557,557,Super built-up  Area,21-Dec,Kanakpura Road,1 BHK,PrarePa,525,1.0,1.0,27.25,12.88576665,77.55275290187642,south
558,558,Built-up  Area,Ready To Move,Attibele,2 BHK,Jae 2hu,656,2.0,1.0,25.0,12.7782588,77.7712834,south east
559,559,Plot  Area,Ready To Move,Marathahalli,4 Bedroom,,1780,4.0,3.0,175.0,12.9552572,77.6984163,east
560,560,Super built-up  Area,Ready To Move,3rd Block Hrbr Layout,2 BHK,Icncy R,1056,2.0,1.0,80.0,13.021750000000054,77.63233000000008,north east
561,561,Super built-up  Area,21-Feb,Bannerghatta Road,1 BHK,Hiatei ,595,1.0,1.0,33.32,12.8905219,77.598149,south
562,562,Built-up  Area,Ready To Move,Ittamadu,2 BHK,,1080,2.0,2.0,50.0,12.9250047,77.5444573,south west
563,563,Super built-up  Area,19-Dec,7th Phase JP Nagar,3 BHK,Puarero,2225,3.0,1.0,160.0,12.912432,77.5759515,south
564,564,Super built-up  Area,18-Aug,Bommasandra,2 BHK,DSoodil,1126,2.0,1.0,28.15,12.8162443,77.6916113,south east
565,565,Super built-up  Area,Ready To Move,Electronics City Phase 1,3 BHK,GaicaVe,1490,3.0,1.0,84.0,12.8496783,77.6649749,south east
566,566,Plot  Area,Ready To Move,HRBR Layout,4 Bedroom,,2000,4.0,1.0,300.0,13.0251863,77.6340078,north east
567,567,Super built-up  Area,Ready To Move,Sarjapur  Road,3 BHK,PuineSu,1550,3.0,3.0,100.0,12.920441,77.6653284,south east
568,568,Super built-up  Area,Ready To Move,,3 BHK,Grare S,1600,3.0,2.0,86.0,,,
569,569,Built-up  Area,Ready To Move,Ashwini layout,2 BHK,,1160,2.0,1.0,55.0,12.9388777,77.6285895,south east
570,570,Built-up  Area,Ready To Move,Whitefield,4 Bedroom,PrOakSi,4144,4.0,3.0,315.0,12.9696365,77.7497448,east
571,571,Super built-up  Area,Ready To Move,Sarjapur  Road,3 BHK,Supleon,2100,3.0,2.0,125.0,12.920441,77.6653284,south east
572,572,Super built-up  Area,Ready To Move,Vittasandra,2 BHK,Prlla C,1404,2.0,1.0,69.3,12.8533901,77.6383481,south east
573,573,Plot  Area,Ready To Move,Sarjapur  Road,4 Bedroom,LGestbo,2230,4.0,3.0,225.0,12.920441,77.6653284,south east
574,574,Super built-up  Area,Ready To Move,Marathalli bridge,3 BHK,,1544,3.0,,120.0,51.24726197500007,1.1240827780000586,north west
575,575,Super built-up  Area,18-May,Banashankari Stage III,3 BHK,Pridsi ,1305,2.0,1.0,58.7,12.926830000000052,77.55017000000004,south west
576,576,Super built-up  Area,Ready To Move,Marathahalli,2 BHK,Aahts H,1230,2.0,2.0,80.0,12.9552572,77.6984163,east
577,577,Plot  Area,Ready To Move,T.C PALYA,2 Bedroom,,1200,2.0,0.0,65.0,13.023040000000037,77.70012000000008,north east
578,578,Super built-up  Area,Ready To Move,Harlur,3 BHK,,1460,3.0,1.0,73.0,12.90593265,77.6754493561861,south east
579,579,Plot  Area,Immediate Possession,Sarjapur  Road,,Asiss B,1200 - 2400,,,34.185,12.920441,77.6653284,south east
580,580,Built-up  Area,Ready To Move,Gottigere,2 BHK,,967,2.0,3.0,45.0,12.8565317,77.5877237,south
581,581,Built-up  Area,Ready To Move,Byatarayanapura,1 Bedroom,,540,1.0,1.0,36.0,13.0666526,77.591967,north
582,582,Super built-up  Area,19-Dec,Hormavu,1 BHK,Kolisl ,715,1.0,2.0,46.0,13.0216149,77.6574918,north east
583,583,Super built-up  Area,Ready To Move,Whitefield,3 BHK,Toindls,2500,3.0,2.0,313.0,12.9696365,77.7497448,east
584,584,Super built-up  Area,Ready To Move,Dooravani Nagar,3 BHK,Puceswn,1578,3.0,1.0,180.0,13.007690000000025,77.68194000000005,east
585,585,Super built-up  Area,Ready To Move,Mysore Road,2 BHK,,1020,2.0,1.0,48.95,12.9467026,77.5300705,south west
586,586,Super built-up  Area,Ready To Move,Jigani,2 BHK,i1odsne,1020,2.0,1.0,40.0,12.7852528,77.6380931,south
587,587,Super built-up  Area,Ready To Move,Koramangala,2 BHK,Ansna K,1253,2.0,1.0,102.0,13.2923988,77.7519261,north east
588,588,Super built-up  Area,Ready To Move,JCR Layout,2 BHK,ARnamru,1180,2.0,2.0,42.0,12.933134,77.7043284,east
589,589,Super built-up  Area,Ready To Move,Nehru Nagar,2 BHK,Veyalin,961,2.0,2.0,38.0,13.068323450000001,77.61076597212485,north
590,590,Built-up  Area,Ready To Move,Kanakapura,3 BHK,,1419,3.0,3.0,75.0,12.88857085,77.56336379757902,south
591,591,Super built-up  Area,Ready To Move,Harlur,3 BHK,SomonCi,1709,3.0,2.0,150.0,12.90593265,77.6754493561861,south east
592,592,Plot  Area,Ready To Move,Papareddipalya,2 Bedroom,,1600,2.0,0.0,115.0,12.971240000000023,77.50910000000005,west
593,593,Super built-up  Area,18-Jul,Venkatapura,1 BHK,,416,1.0,1.0,18.5,13.1141369,77.7819989,north east
594,594,Carpet  Area,Ready To Move,Sanjay nagar,2 BHK,,1100,2.0,2.0,98.0,12.9578658,77.6958748,east
595,595,Super built-up  Area,Ready To Move,HSR Layout,3 BHK,,1430,2.0,1.0,65.0,12.9116225,77.6388622,south east
596,596,Super built-up  Area,Ready To Move,Sneha Colony,2 BHK,Daill S,1260,2.0,2.0,45.0,13.00975,77.6568,north east
597,597,Built-up  Area,Ready To Move,RMV Extension,3 BHK,DSureSi,1630,3.0,2.0,85.0,13.03565265,77.57479784652307,north
598,598,Super built-up  Area,19-May,Sarjapur  Road,3 BHK,Soini T,1249,3.0,2.0,44.71,12.920441,77.6653284,south east
599,599,Super built-up  Area,Ready To Move,Kalena Agrahara,3 BHK,MancyRe,1450,2.0,3.0,85.0,12.8661075,77.59192,south
600,600,Super built-up  Area,17-Nov,Konanakunte,3 BHK,Prasa W,2791,3.0,1.0,223.0,12.8792861,77.5697529,south
601,601,Super built-up  Area,Ready To Move,Hosapalya,1 BHK,,600,1.0,0.0,90.0,12.8419732,77.482913,south west
602,602,Built-up  Area,Ready To Move,Ashwini layout,1 BHK,Kaantth,834,1.0,1.0,60.0,12.9388777,77.6285895,south east
603,603,Plot  Area,Ready To Move,Doddagubbi,3 Bedroom,,1125,4.0,1.0,70.0,13.069960000000037,77.67397000000005,north east
604,604,Super built-up  Area,Ready To Move,Arekere,3 BHK,,2060,3.0,2.0,140.0,12.8872086,77.5960493,south
605,605,Super built-up  Area,19-Jan,Malleshwaram,7 BHK,,12000,7.0,3.0,2200.0,13.0027353,77.5703253,north
606,606,Built-up  Area,Ready To Move,Gottigere,2 BHK,Drente ,891,2.0,1.0,25.0,12.8565317,77.5877237,south
607,607,Super built-up  Area,Ready To Move,Raja Rajeshwari Nagar,2 BHK,GrrvaGr,1133,2.0,1.0,49.07,12.858390000000043,80.18606000000005,east
608,608,Built-up  Area,Ready To Move,Bisuvanahalli,3 BHK,Prityel,1075,2.0,1.0,37.0,13.237580000000037,77.56019000000003,north
609,609,Super built-up  Area,18-May,Sector 6 HSR Layout,4 BHK,,3000,5.0,2.0,260.0,12.9137758,77.629926,south east
610,610,Plot  Area,Ready To Move,Brookefield,4 Bedroom,,2440,5.0,2.0,425.0,12.9668213,77.7168891,east
611,611,Built-up  Area,Ready To Move,Vidyaranyapura,2 BHK,,1200,2.0,2.0,55.0,13.0766407,77.5577315,north
612,612,Super built-up  Area,Ready To Move,Thanisandra,2 BHK,,1075,2.0,2.0,45.8,13.054713,77.6339258,north east
613,613,Super built-up  Area,Ready To Move,Kaggadasapura,2 BHK,,1140,2.0,2.0,40.0,12.9846713,77.6790908,east
614,614,Plot  Area,Ready To Move,Margondanahalli,5 Bedroom,,940,4.0,2.0,150.0,13.035510000000045,77.69386000000003,north east
615,615,Plot  Area,Ready To Move,ITI Layout,6 Bedroom,,2160,5.0,1.0,250.0,13.0045212,77.6070383,north east
616,616,Super built-up  Area,Ready To Move,Raja Rajeshwari Nagar,2 BHK,SGandea,1090,2.0,1.0,42.0,12.858390000000043,80.18606000000005,east
617,617,Built-up  Area,Ready To Move,R.T. Nagar,4 Bedroom,,1500,4.0,1.0,70.0,13.0251833,77.5920609,north
618,618,Super built-up  Area,Ready To Move,Whitefield,4 BHK,,4104,4.0,2.0,360.0,12.9696365,77.7497448,east
619,619,Super built-up  Area,Ready To Move,Whitefield,3 BHK,,1790,3.0,,100.0,12.9696365,77.7497448,east
620,620,Super built-up  Area,18-Dec,Hebbal,3 BHK,Mahosya,1920,3.0,2.0,134.0,13.0382184,77.5919,north
621,621,Built-up  Area,Ready To Move,HRBR Layout,2 BHK,Eline P,1374,2.0,2.0,95.0,13.0251863,77.6340078,north east
622,622,Carpet  Area,Ready To Move,Bannerghatta Road,3 BHK,,1445,3.0,2.0,95.0,12.8905219,77.598149,south
623,623,Super built-up  Area,19-Dec,Kanakapura,1 BHK,GoityEt,711,1.0,1.0,36.0,12.88857085,77.56336379757902,south
624,624,Super built-up  Area,Ready To Move,Tumkur Road,3 BHK,SosonGa,1500,3.0,3.0,95.0,13.0238021,77.5491625,north west
625,625,Super built-up  Area,Ready To Move,Whitefield,3 BHK,Gotis A,1720,3.0,3.0,100.0,12.9696365,77.7497448,east
626,626,Super built-up  Area,Ready To Move,Vasanthapura,3 BHK,,1400,3.0,2.0,60.0,12.88929715,77.55955229173568,south
627,627,Built-up  Area,Ready To Move,Kundalahalli,2 BHK,,1030,2.0,2.0,49.0,12.9684441,77.7187843,east
628,628,Super built-up  Area,Ready To Move,Mysore Road,2 BHK,PrntaEn,1200,2.0,1.0,85.0,12.9467026,77.5300705,south west
629,629,Carpet  Area,18-Jul,Hosahalli,3 BHK,NSezeBr,1375,3.0,2.0,70.0,13.1406199,77.641836,north
630,630,Plot  Area,Ready To Move,Hegde Nagar,2 Bedroom,,1050,1.0,,56.0,13.0720352,77.6333905,north east
631,631,Super built-up  Area,Ready To Move,Jalahalli,3 BHK,Tahtsla,2250,3.0,2.0,160.0,13.0464531,77.5483803,north west
632,632,Super built-up  Area,Ready To Move,Bellandur,2 BHK,Sronda ,1000,2.0,2.0,50.0,12.9279555,77.6807658,south east
633,633,Super built-up  Area,Ready To Move,Jalahalli West,1 BHK,Prntsax,469,1.0,0.0,25.0,13.0533332,77.5306036,north west
634,634,Super built-up  Area,Ready To Move,Marathahalli,4 BHK,PueraRi,3800,4.0,3.0,250.0,12.9552572,77.6984163,east
635,635,Super built-up  Area,Ready To Move,Kambipura,2 BHK,Prrtht ,883,2.0,1.0,29.0,12.8726196,77.4615524,south west
636,636,Super built-up  Area,Ready To Move,GM Palaya,3 BHK,Chnts A,1820,2.0,3.0,86.0,12.974779,77.6654084,east
637,637,Built-up  Area,Ready To Move,Singasandra,3 BHK,,1440,2.0,3.0,65.0,12.88027485,77.65475374894244,south east
638,638,Super built-up  Area,Ready To Move,near Ramanashree California resort,6 BHK,,3600,4.0,1.0,160.0,13.11403000000007,77.57924000000008,north
639,639,Built-up  Area,Ready To Move,Malleshwaram,4 BHK,GaityEt,2500,5.0,2.0,325.0,13.0027353,77.5703253,north
640,640,Super built-up  Area,18-Aug,Mahadevpura,2 BHK,,1225,2.0,2.0,48.0,12.9936177,77.6856673,east
641,641,Plot  Area,Ready To Move,"6th block banashankari 3rd stage, 100 feet ORR",3 Bedroom,,4000,3.0,1.0,660.0,12.925333715385602,77.5499612034552,south west
642,642,Carpet  Area,Ready To Move,Chikkalasandra,2 BHK,,875,2.0,3.0,52.8,12.9121916,77.5476337,south west
643,643,Super built-up  Area,Ready To Move,Jalahalli East,1 BHK,ShshaSa,750,1.0,2.0,40.0,13.06417205,77.54345050413951,north
644,644,Super built-up  Area,Ready To Move,6th Phase JP Nagar,2 BHK,,1180,2.0,3.0,80.0,12.9133333,77.578314,south
645,645,Super built-up  Area,Ready To Move,Haralur Road,2 BHK,,1194,2.0,2.0,47.0,12.8922203,77.6558048,south east
646,646,Super built-up  Area,Ready To Move,Hennur Road,3 BHK,,1500,2.0,2.0,62.0,13.0398416,77.6413592,north east
647,647,Super built-up  Area,Ready To Move,Poornapragna Housing Society Layout,2 BHK,,1160,2.0,2.0,52.2,12.905480000000068,77.53593000000006,south west
648,648,Built-up  Area,Ready To Move,Arekere,9 Bedroom,,4125Perch,9.0,,265.0,12.8872086,77.5960493,south
649,649,Super built-up  Area,Ready To Move,Hosakerehalli,3 BHK,Taonte ,2378,3.0,1.0,262.0,12.9301881,77.5378332,south west
650,650,Super built-up  Area,Ready To Move,Sarjapur,2 BHK,Ahownve,1128,2.0,1.0,60.0,12.932266649999999,77.68374728308987,east
651,651,Super built-up  Area,Ready To Move,Hebbal,3 BHK,Cevely ,1500,3.0,1.0,150.0,13.0382184,77.5919,north
652,652,Built-up  Area,18-Aug,Huskur,3 BHK,,1220,2.0,1.0,35.23,12.8607674,77.7071019,south east
653,653,Super built-up  Area,Ready To Move,Sarjapur  Road,2 BHK,,1210,2.0,2.0,58.0,12.920441,77.6653284,south east
654,654,Super built-up  Area,20-Oct,Kanakpura Road,3 BHK,PrarePa,1100,2.0,1.0,58.0,12.88576665,77.55275290187642,south
655,655,Super built-up  Area,Ready To Move,Bommasandra,3 BHK,Vaodspe,1200,3.0,2.0,46.0,12.8162443,77.6916113,south east
656,656,Built-up  Area,18-Mar,Haralur Road,4 BHK,SNnia E,3385,5.0,,260.0,12.8922203,77.6558048,south east
657,657,Super built-up  Area,Ready To Move,Nagondanahalli,3 BHK,DSldsen,1641,3.0,2.0,66.0,12.97516,77.7703403,east
658,658,Super built-up  Area,Ready To Move,Horamavu Agara,2 BHK,,1200,2.0,1.0,45.0,13.0367725,77.6549479,north east
659,659,Super built-up  Area,Ready To Move,Raja Rajeshwari Nagar,2 BHK,NaonySy,1260,2.0,1.0,67.39,12.858390000000043,80.18606000000005,east
660,660,Super built-up  Area,Ready To Move,Mahadevpura,3 BHK,,1720,3.0,3.0,78.0,12.9936177,77.6856673,east
661,661,Super built-up  Area,Ready To Move,Yelahanka,2 BHK,Rarthne,1120 - 1145,2.0,0.0,48.13,13.1006982,77.5963454,north
662,662,Super built-up  Area,Ready To Move,Yelahanka,2 BHK,Pyikad ,1210,2.0,1.0,45.98,13.1006982,77.5963454,north
663,663,Built-up  Area,Ready To Move,Indira Nagar,4 Bedroom,,2200,4.0,2.0,200.0,12.9732913,77.6404672,east
664,664,Super built-up  Area,Ready To Move,Bisuvanahalli,3 BHK,Prityel,1075,2.0,1.0,45.0,13.237580000000037,77.56019000000003,north
665,665,Built-up  Area,Ready To Move,Thanisandra,3 BHK,Soitya ,1702,3.0,2.0,130.0,13.054713,77.6339258,north east
666,666,Super built-up  Area,Ready To Move,Shanthala Nagar,2 BHK,Malex C,1630,2.0,2.0,200.0,12.9102452,77.4830975,south west
667,667,Super built-up  Area,Ready To Move,Raja Rajeshwari Nagar,2 BHK,GrrvaGr,1141,2.0,2.0,38.55,12.858390000000043,80.18606000000005,east
668,668,Super built-up  Area,18-Apr,Shantiniketan Layout,3 BHK,,2072,3.0,2.0,108.0,12.9147113,77.6024933,south
669,669,Super built-up  Area,18-Dec,JP Nagar,5 BHK,Pehtsa ,4400 - 6640,,,375.0,12.9072515,77.5782713,south
670,670,Built-up  Area,Ready To Move,Herohalli,3 Bedroom,,1200,2.0,0.0,70.0,12.9912345,77.4870119,west
671,671,Super built-up  Area,Ready To Move,Teachers Colony,3 BHK,,1350,3.0,0.0,77.0,12.9188265,77.6341185,south east
672,672,Built-up  Area,18-Mar,Bettahalsoor,4 Bedroom,Toainnt,3090 - 5002,4.0,0.0,445.0,13.155050000000074,77.60496000000006,north
673,673,Super built-up  Area,18-Dec,Srinivasa Nagar,3 BHK,,1180,2.0,2.0,78.34,12.9965077,77.6220456,north east
674,674,Built-up  Area,Ready To Move,Yelahanka,3 BHK,Edreelm,35000,3.0,3.0,130.0,13.1006982,77.5963454,north
675,675,Super built-up  Area,Ready To Move,Langford Town,2 BHK,,1355,2.0,2.0,115.0,12.957998,77.6037312,south east
676,676,Plot  Area,Ready To Move,Sulthangunta,1 Bedroom,,600,1.0,0.0,50.0,12.987180000000023,77.60398000000004,north east
677,677,Plot  Area,Ready To Move,Hormavu,7 Bedroom,,1200,7.0,,150.0,13.0216149,77.6574918,north east
678,678,Super built-up  Area,Ready To Move,Bannerghatta Road,3 BHK,,1640,2.0,1.0,120.0,12.8905219,77.598149,south
679,679,Plot  Area,Ready To Move,Byrathi Village,5 Bedroom,,1200,5.0,0.0,100.0,23.936860000000024,73.57163000000008,north
680,680,Super built-up  Area,Ready To Move,Kodichikkanahalli,3 BHK,,1190,2.0,2.0,57.0,12.8966996,77.6124269,south
681,681,Plot  Area,Ready To Move,OMBR Layout,4 Bedroom,,2400,4.0,2.0,375.0,13.0082078,77.652392,north east
682,682,Super built-up  Area,Ready To Move,Marathahalli,2 BHK,,1019,2.0,2.0,49.85,12.9552572,77.6984163,east
683,683,Super built-up  Area,Ready To Move,Ambedkar Colony,3 BHK,RMcesa ,1875,3.0,2.0,165.0,13.0457579,77.52921856814623,north west
684,684,Super built-up  Area,18-May,Akshaya Nagar,3 BHK,,1250,3.0,2.0,40.0,13.0195427,77.6831272,north east
685,685,Plot  Area,Ready To Move,Brookefield,3 Bedroom,Krreera,1200,3.0,2.0,140.0,12.9668213,77.7168891,east
686,686,Super built-up  Area,Ready To Move,Whitefield,2 BHK,PaantPl,1140,2.0,1.0,56.0,12.9696365,77.7497448,east
687,687,Super built-up  Area,Ready To Move,Lingadheeranahalli,3 BHK,Soiewre,1683,3.0,1.0,109.0,13.00129000000004,77.47907000000004,west
688,688,Super built-up  Area,Ready To Move,Kaggadasapura,3 BHK,Golmsoy,1515,3.0,,83.3,12.9846713,77.6790908,east
689,689,Super built-up  Area,19-Dec,Hoodi,4 BHK,Caycend,2118,4.0,2.0,111.0,12.9919033,77.7162015,east
690,690,Built-up  Area,Ready To Move,Bannerghatta Road,4 Bedroom,,1380,3.0,0.0,58.0,12.8905219,77.598149,south
691,691,Super built-up  Area,Ready To Move,Varthur Road,2 BHK,,1083,2.0,2.0,61.75,12.9569176,77.701973,east
692,692,Plot  Area,Ready To Move,Anjappa Layout,2 Bedroom,,600,2.0,1.0,55.0,12.910380000000032,77.55334000000005,south west
693,693,Built-up  Area,Ready To Move,Avalahalli,3 BHK,Sohea A,2300,3.0,3.0,120.0,12.9437456,77.5402044,south west
694,694,Super built-up  Area,Ready To Move,Prakruthi Nagar,2 BHK,MSvelek,1240,2.0,2.0,60.0,12.95637000000005,77.51851000000005,west
695,695,Super built-up  Area,Ready To Move,Surabhi Layout,3 BHK,VDdonel,1750,3.0,1.0,120.0,13.0929358,77.6009735,north
696,696,Super built-up  Area,18-Apr,Sadaramangala,2 BHK,,1230,2.0,,43.48,12.9989026,77.7375086,east
697,697,Plot  Area,17-Aug,Anjanapura,3 Bedroom,,1500,3.0,1.0,139.0,12.8580811,77.5580713,south
698,698,Super built-up  Area,Ready To Move,Abbigere,2 BHK,SLtias ,985,2.0,1.0,40.39,13.0742739,77.5288653,north west
699,699,Plot  Area,Ready To Move,Tindlu,3 Bedroom,Hentye ,1500,2.0,1.0,87.0,13.2338969,77.5947061,north
700,700,Built-up  Area,18-Dec,Electronic City,2 BHK,,1125,2.0,1.0,32.49,12.848759900000001,77.64825295827616,south east
701,701,Built-up  Area,Ready To Move,Maruthi Sevanagar,2 BHK,SMikaay,950,2.0,1.0,44.0,13.0011184,77.632846,north east
702,702,Super built-up  Area,18-Dec,JP Nagar,5 BHK,Pehtsa ,4400 - 6800,,,548.5,12.9072515,77.5782713,south
703,703,Super built-up  Area,Ready To Move,Kothanur,3 BHK,,1580,3.0,3.0,76.0,13.0613601,77.6493895,north east
704,704,Plot  Area,Ready To Move,B Narayanapura,3 Bedroom,,1092,2.0,1.0,98.5,12.9980556,77.6848622,east
705,705,Built-up  Area,18-Jul,Electronic City Phase II,2 BHK,Sryalan,1090,2.0,1.0,28.34,12.8468545,77.6769267,south east
706,706,Built-up  Area,19-Mar,Hennur Road,3 Bedroom,,2264,3.0,1.0,159.0,13.0398416,77.6413592,north east
707,707,Super built-up  Area,19-Aug,Dommasandra,3 BHK,,1033,2.0,2.0,25.53,12.8777098,77.7534769,south east
708,708,Super built-up  Area,18-Apr,Kammasandra,2 BHK,Prony S,810,2.0,2.0,24.5,13.1499855,77.782041,north east
709,709,Super built-up  Area,Ready To Move,Green Garden Layout,2 BHK,PaisePa,1045,2.0,0.0,45.0,12.87209015,77.64516248660641,south east
710,710,Super built-up  Area,18-Sep,Hebbal,2 BHK,Arcia S,1337,2.0,1.0,82.0,13.0382184,77.5919,north
711,711,Super built-up  Area,Ready To Move,Chandapura,2 BHK,,1200,2.0,2.0,32.0,12.8004439,77.7062826,south east
712,712,Super built-up  Area,Ready To Move,Koramangala,3 BHK,TealeRo,1580,3.0,2.0,160.0,13.2923988,77.7519261,north east
713,713,Super built-up  Area,Ready To Move,Begur Road,3 BHK,Dhalsh ,1500,2.0,3.0,54.0,12.8767919,77.6258806,south east
714,714,Super built-up  Area,18-Sep,Whitefield,3 BHK,Umods W,1640,4.0,2.0,91.0,12.9696365,77.7497448,east
715,715,Super built-up  Area,Ready To Move,Silver Springs Layout,3 BHK,SSarlPe,1570,3.0,2.0,62.0,12.9157034,77.52755355,south west
716,716,Super built-up  Area,Ready To Move,Gubbalala,3 BHK,MauilTr,1470,2.0,2.0,82.0,12.8856635,77.5416809,south west
717,717,Super built-up  Area,Ready To Move,Kengeri,2 BHK,,1160,2.0,2.0,40.61,12.9176571,77.4837568,south west
718,718,Built-up  Area,Ready To Move,7th Phase JP Nagar,2 BHK,Brnia G,1050,2.0,1.0,71.0,12.912432,77.5759515,south
719,719,Super built-up  Area,20-Jun,Dairy Circle,3 BHK,Soeurri,1855,3.0,1.0,225.0,13.0992974,77.5769196,north
720,720,Super built-up  Area,Ready To Move,Bannerghatta Road,3 BHK,SNity S,1460,2.0,1.0,90.0,12.8905219,77.598149,south
721,721,Built-up  Area,Ready To Move,Hulimavu,3 BHK,,1823,3.0,2.0,100.0,12.8773486,77.6028031,south
722,722,Super built-up  Area,Ready To Move,Electronic City,2 BHK,Daives ,1094,2.0,2.0,42.0,12.848759900000001,77.64825295827616,south east
723,723,Super built-up  Area,Ready To Move,Budigere,2 BHK,PrityTr,1153,2.0,2.0,57.0,13.1351402,77.74957,north east
724,724,Built-up  Area,Ready To Move,Hoysalanagar,3 BHK,PNncysi,1325,3.0,1.0,57.0,12.991460000000075,77.50218000000007,west
725,725,Plot  Area,Ready To Move,Parappana Agrahara,4 Bedroom,,1200,3.0,2.0,85.0,12.8814541,77.6674463,south east
726,726,Built-up  Area,Ready To Move,Jakkur,3 BHK,Socon Z,1590,2.0,2.0,125.0,13.0784743,77.6068938,north
727,727,Plot  Area,Ready To Move,Jeevan bima nagar,5 Bedroom,,1210,4.0,2.0,160.0,12.96601000000004,77.65767000000005,east
728,728,Plot  Area,Ready To Move,Raja Rajeshwari Nagar,4 Bedroom,,1200,4.0,0.0,220.0,12.858390000000043,80.18606000000005,east
729,729,Super built-up  Area,Ready To Move,Narayana Nagar 1st Block,2 BHK,Krite D,1202,2.0,1.0,48.0,12.9074812,77.5731495,south
730,730,Built-up  Area,Ready To Move,Haralur Road,2 BHK,,1202,2.0,1.0,53.0,12.8922203,77.6558048,south east
731,731,Super built-up  Area,Ready To Move,KSRTC Layout,2 BHK,Srisei ,1200,2.0,3.0,62.5,12.955500350000001,77.59478188807455,south east
732,732,Super built-up  Area,18-Feb,Panathur,3 BHK,Prcesvy,1688,3.0,1.0,118.0,12.9351457,77.7047541,east
733,733,Built-up  Area,Ready To Move,Kaval Byrasandra,2 BHK,Soestrn,1020,2.0,1.0,52.0,13.0200235,77.6092887,north east
734,734,Super built-up  Area,Ready To Move,Sarjapur,2 BHK,Coa 3t ,1185,2.0,2.0,47.0,12.932266649999999,77.68374728308987,east
735,735,Super built-up  Area,17-Oct,Ramagondanahalli,2 BHK,ViistLa,1235,2.0,1.0,52.04,12.9558969,77.7405826,east
736,736,Super built-up  Area,Ready To Move,Hosakerehalli,4 BHK,Taonte ,3205,5.0,1.0,500.0,12.9301881,77.5378332,south west
737,737,Super built-up  Area,Ready To Move,Banashankari,2 BHK,,1077,2.0,2.0,37.64,12.965283249999999,77.59445195,south east
738,738,Super built-up  Area,Ready To Move,Kengeri Satellite Town,3 BHK,MB-laan,1415,2.0,3.0,66.0,12.9229728,77.4842926,south west
739,739,Super built-up  Area,18-Apr,EPIP Zone,3 BHK,BrontLa,2330,3.0,2.0,162.0,12.9781922,77.7246451,east
740,740,Super built-up  Area,Ready To Move,Whitefield,2 BHK,JahanSa,805,2.0,2.0,35.0,12.9696365,77.7497448,east
741,741,Built-up  Area,Ready To Move,P&T Colony,1 BHK,,425,1.0,0.0,20.03,12.958131,77.7165083,east
742,742,Super built-up  Area,Ready To Move,Whitefield,2 BHK,DNlleks,1155,2.0,3.0,59.95,12.9696365,77.7497448,east
743,743,Super built-up  Area,Ready To Move,Cunningham Road,4 BHK,,5270,4.0,3.0,1250.0,12.9845781,77.5970428,north east
744,744,Super built-up  Area,Ready To Move,Anekal,2 BHK,,656,2.0,1.0,22.0,12.799122,77.68060437921743,south east
745,745,Built-up  Area,Ready To Move,New Gurappana Palya,2 BHK,Alncy R,1100,2.0,0.0,48.0,12.9242342,77.6041393,south east
746,746,Super built-up  Area,Ready To Move,Mahadevpura,2 BHK,,1150,2.0,3.0,52.0,12.9936177,77.6856673,east
747,747,Plot  Area,Ready To Move,Chelekare,1 Bedroom,,600,1.0,1.0,60.0,23.308490000000063,74.17756000000003,north
748,748,Super built-up  Area,Ready To Move,Ambedkar Colony,2 BHK,RMcesa ,1468,2.0,1.0,140.0,13.0457579,77.52921856814623,north west
749,749,Plot  Area,Ready To Move,Palanahalli,4 Bedroom,RMaanSa,4300,5.0,2.0,550.0,13.11608105,77.6168046706018,north
750,750,Super built-up  Area,18-Dec,Whitefield,3 BHK,Prtates,2280,4.0,2.0,126.0,12.9696365,77.7497448,east
751,751,Super built-up  Area,Ready To Move,Hegde Nagar,2 BHK,Soiniy ,1341,2.0,1.0,97.0,13.0720352,77.6333905,north east
752,752,Super built-up  Area,Ready To Move,Jakkur,2 BHK,,1279,2.0,1.0,77.0,13.0784743,77.6068938,north
753,753,Super built-up  Area,18-Dec,Electronic City Phase II,4 BHK,SNbay G,2225,4.0,0.0,98.88,12.8468545,77.6769267,south east
754,754,Super built-up  Area,Ready To Move,Thanisandra,2 BHK,MenueNo,1185,2.0,2.0,43.51,13.054713,77.6339258,north east
755,755,Super built-up  Area,Ready To Move,Vadarpalya,3 BHK,VMianri,1750,3.0,2.0,85.0,12.833520000000021,77.69929000000008,south east
756,756,Super built-up  Area,Ready To Move,Kudlu,2 BHK,GKityel,1152,2.0,1.0,53.5,12.8889126,77.6555716,south east
757,757,Plot  Area,Ready To Move,Shivanagar,5 Bedroom,,1000,4.0,1.0,160.0,12.99065,77.5507691,north west
758,758,Super built-up  Area,Ready To Move,Hulimavu,2 BHK,Jaise P,1300,2.0,3.0,36.0,12.8773486,77.6028031,south
759,759,Plot  Area,18-Nov,Varthur Road,4 Bedroom,,2760,4.0,2.0,155.0,12.9569176,77.701973,east
760,760,Super built-up  Area,18-Aug,5th Phase JP Nagar,2 BHK,,1070,2.0,2.0,39.0,12.9118678,77.5765347,south
761,761,Super built-up  Area,Ready To Move,Uttarahalli,2 BHK,Siayayo,1101,2.0,0.0,45.0,12.9055682,77.5455438,south west
762,762,Super built-up  Area,Ready To Move,V.V Puram,2 BHK,,775,2.0,1.0,55.0,12.9491845,77.5799414,south
763,763,Super built-up  Area,Ready To Move,Yeshwanthpur,1 BHK,IBityin,667,1.0,1.0,36.85,13.0371162,77.5280547,north west
764,764,Super built-up  Area,Ready To Move,Electronic City,2 BHK,GMown E,1070,2.0,1.0,55.0,12.848759900000001,77.64825295827616,south east
765,765,Built-up  Area,Ready To Move,Old Airport Road,3 BHK,Trnce A,1875,2.0,2.0,110.0,12.9583828,77.6663946,east
766,766,Super built-up  Area,Ready To Move,Kundalahalli,2 BHK,Dieldli,735,2.0,1.0,57.99,12.9684441,77.7187843,east
767,767,Plot  Area,Ready To Move,Sarjapur,5 Bedroom,,4360,4.0,1.0,90.0,12.932266649999999,77.68374728308987,east
768,768,Super built-up  Area,Ready To Move,Koramangala,3 BHK,,1750,3.0,2.0,130.0,13.2923988,77.7519261,north east
769,769,Super built-up  Area,Ready To Move,Marathahalli,2 BHK,PuilaMi,1215,2.0,1.0,67.0,12.9552572,77.6984163,east
770,770,Plot  Area,Ready To Move,Sector 3 HSR Layout,9 Bedroom,,600,9.0,3.0,190.0,12.9091034,77.6425034,south east
771,771,Super built-up  Area,Ready To Move,Vishwapriya Layout,2 BHK,Prodsth,820,2.0,1.0,30.0,19.910470000000032,75.35541000000006,north
772,772,Super built-up  Area,20-Dec,Banashankari Stage VI,2 BHK,Brens7 ,1160 - 1195,2.0,0.0,59.935,12.9275421,77.5618188,south
773,773,Super built-up  Area,Ready To Move,Battarahalli,3 BHK,PaontWa,1779,3.0,2.0,89.61,13.020020000000045,77.70975000000004,east
774,774,Built-up  Area,Ready To Move,HMT Layout,2 BHK,HMRWAyo,1105,2.0,2.0,58.0,13.03553,77.5027084,north west
775,775,Built-up  Area,Ready To Move,Basavanagara,1 BHK,,1000Sq. Meter,2.0,1.0,93.0,12.900973,77.4671249,south west
776,776,Super built-up  Area,Ready To Move,Whitefield,3 BHK,UKkente,1650,3.0,2.0,60.0,12.9696365,77.7497448,east
777,777,Super built-up  Area,Ready To Move,Jalahalli,2 BHK,Tahtsla,1694,2.0,2.0,150.0,13.0464531,77.5483803,north west
778,778,Super built-up  Area,Ready To Move,Hosakerehalli,3 BHK,Taonte ,2376,3.0,1.0,203.0,12.9301881,77.5378332,south west
779,779,Super built-up  Area,Ready To Move,Cox Town,3 BHK,,1975,3.0,3.0,150.0,12.9954832,77.6208684,north east
780,780,Super built-up  Area,Ready To Move,Kammasandra,2 BHK,Icingpy,674,2.0,1.0,33.0,13.1499855,77.782041,north east
781,781,Super built-up  Area,Ready To Move,Kaggadasapura,2 BHK,SLireap,1185,2.0,1.0,41.0,12.9846713,77.6790908,east
782,782,Super built-up  Area,Ready To Move, Thanisandra,1 RK,Bhmesy ,445,1.0,0.0,28.0,13.054713,77.6339258,north east
783,783,Built-up  Area,Ready To Move,Mylasandra,6 Bedroom,VaitySe,900,7.0,,76.0,12.8514983,77.6204097,south
784,784,Super built-up  Area,Ready To Move,HSR Layout,3 BHK,,1475,3.0,2.0,75.0,12.9116225,77.6388622,south east
785,785,Super built-up  Area,Ready To Move,Gottigere,3 BHK,Sklls C,1618,3.0,3.0,82.5,12.8565317,77.5877237,south
786,786,Super built-up  Area,Ready To Move,Koramangala,2 BHK,Vaanda ,1120,2.0,0.0,65.0,13.2923988,77.7519261,north east
787,787,Super built-up  Area,Ready To Move,Marathahalli,4 BHK,Sutte C,2181,3.0,2.0,152.0,12.9552572,77.6984163,east
788,788,Plot  Area,Ready To Move,Vidyaranyapura,4 Bedroom,,1200,4.0,0.0,90.0,13.0766407,77.5577315,north
789,789,Plot  Area,Ready To Move,Nagondanahalli,6 Bedroom,,600,4.0,3.0,65.0,12.97516,77.7703403,east
790,790,Super built-up  Area,18-Oct,Bannerghatta Road,3 BHK,DSnjh S,1556,2.0,1.0,59.13,12.8905219,77.598149,south
791,791,Super built-up  Area,19-Feb,Bannerghatta Road,2 BHK,Hiatei ,1179,2.0,1.0,66.02,12.8905219,77.598149,south
792,792,Super built-up  Area,Ready To Move,Thanisandra,2 BHK,Bhmesy ,1296,2.0,2.0,83.0,13.054713,77.6339258,north east
793,793,Built-up  Area,Ready To Move,Kaggadasapura,2 BHK,VSomepi,1275,2.0,2.0,52.0,12.9846713,77.6790908,east
794,794,Built-up  Area,Ready To Move,Kalasipalya,7 Bedroom,,1875,2.0,2.0,300.0,12.958189,77.5768148,south
795,795,Super built-up  Area,Ready To Move,Kathriguppe,3 BHK,,1400,2.0,2.0,77.0,12.9329956,77.5569667,south west
796,796,Super built-up  Area,Ready To Move,Gottigere,2 BHK,Krryll ,1222,2.0,1.0,63.0,12.8565317,77.5877237,south
797,797,Super built-up  Area,Ready To Move,Electronic City,2 BHK,Palleon,940,2.0,1.0,41.0,12.848759900000001,77.64825295827616,south east
798,798,Super built-up  Area,Ready To Move,Thanisandra,2 BHK,MenueNo,1185,2.0,2.0,42.6,13.054713,77.6339258,north east
799,799,Super built-up  Area,Ready To Move,Tumkur Road,3 BHK,Soite E,1779,3.0,2.0,112.0,13.0238021,77.5491625,north west
800,800,Super built-up  Area,Ready To Move,Begur Road,3 BHK,Dhalsh ,1615,3.0,2.0,59.76,12.8767919,77.6258806,south east
801,801,Super built-up  Area,18-Dec,JP Nagar,4 BHK,Pehtsa ,4000 - 5249,,,453.0,12.9072515,77.5782713,south
802,802,Super built-up  Area,Ready To Move,Haralur Road,2 BHK,Zostaa ,1056,2.0,1.0,61.0,12.8922203,77.6558048,south east
803,803,Super built-up  Area,Ready To Move,7th Phase JP Nagar,2 BHK,,1100,2.0,0.0,46.0,12.912432,77.5759515,south
804,804,Built-up  Area,Ready To Move,Arekere,2 BHK,Prdowth,920,2.0,1.0,40.0,12.8872086,77.5960493,south
805,805,Super built-up  Area,Ready To Move,ITI Layout,3 BHK,BMityre,1602,2.0,0.0,75.0,13.0045212,77.6070383,north east
806,806,Built-up  Area,Ready To Move,Padmanabhanagar,2 BHK,,1176,2.0,0.0,62.0,12.91814255,77.55767110316643,south
807,807,Plot  Area,Ready To Move,HBR Layout,4 Bedroom,,675,3.0,1.0,59.0,13.0358698,77.6323597,north east
808,808,Super built-up  Area,Ready To Move,Richmond Town,3 BHK,,1352,3.0,0.0,135.0,12.9626925,77.6041603,south east
809,809,Built-up  Area,Ready To Move,Kasavanhalli,3 BHK,HMonymp,1717,3.0,3.0,99.0,12.9047595,77.6759172,south east
810,810,Plot  Area,18-Apr,4 Bedroom Farm House in Bagalur,4 Bedroom,,10961,4.0,1.0,80.0,12.981399820563107,77.5875578581952,north east
811,811,Super built-up  Area,18-Jul,Bhoganhalli,4 BHK,Rosha I,2119,4.0,3.0,111.0,12.927050000000065,77.69478000000004,east
812,812,Super built-up  Area,Ready To Move,Vittasandra,2 BHK,Prlla C,1246,2.0,1.0,67.3,12.8533901,77.6383481,south east
813,813,Super built-up  Area,17-Jul,Anandapura,2 BHK,ViensRK,1141,2.0,1.0,42.79,13.0239276,77.6923621,north east
814,814,Built-up  Area,Ready To Move,Hennur Road,2 BHK,,1157,2.0,1.0,84.0,13.0398416,77.6413592,north east
815,815,Super built-up  Area,18-Aug,Chandapura,2 BHK,SuVue S,1025,2.0,2.0,27.68,12.8004439,77.7062826,south east
816,816,Built-up  Area,Ready To Move,Yelahanka New Town,1 BHK,KHatsFl,650,1.0,2.0,33.0,13.0978039,77.5811889,north
817,817,Super built-up  Area,Ready To Move,Hebbal,2 BHK,Prersis,1349,2.0,1.0,98.0,13.0382184,77.5919,north
818,818,Super built-up  Area,Ready To Move,Narayanapura,3 BHK,Veodsar,1566,3.0,1.0,83.3,13.3397035,77.763495,north east
819,819,Super built-up  Area,Ready To Move,Sahakara Nagar,4 BHK,OsrdsOr,2830,3.0,3.0,195.0,13.0621474,77.58006135480495,north
820,820,Built-up  Area,18-Dec,Electronic City,3 BHK,,1320,2.0,1.0,38.13,12.848759900000001,77.64825295827616,south east
821,821,Super built-up  Area,18-Nov,manyata park,3 BHK,,1780,3.0,1.0,84.83,13.0551983,77.62123997373175,north east
822,822,Super built-up  Area,Ready To Move,Varthur,2 BHK,Hirio L,1091,2.0,1.0,34.9,12.9406152,77.7469937,east
823,823,Super built-up  Area,Ready To Move,Rachenahalli,4 BHK,Leino C,3670,4.0,3.0,300.0,13.0588586,77.6232576,north east
824,824,Built-up  Area,Ready To Move,7th Phase JP Nagar,2 BHK,,918,2.0,1.0,50.49,12.912432,77.5759515,south
825,825,Super built-up  Area,20-Dec,Yeshwanthpur,4 BHK,Detat H,1950,4.0,0.0,130.0,13.0371162,77.5280547,north west
826,826,Super built-up  Area,Ready To Move,Panathur,3 BHK,,1695,3.0,1.0,90.0,12.9351457,77.7047541,east
827,827,Super built-up  Area,Ready To Move,Yelahanka,3 BHK,Shana S,1705,3.0,2.0,95.0,13.1006982,77.5963454,north
828,828,Built-up  Area,Ready To Move,Kalyan nagar,3 BHK,Disical,1375,3.0,2.0,75.0,13.0221416,77.6403368,north east
829,829,Super built-up  Area,21-Oct,Kanakpura Road,1 BHK,PrarePa,525,1.0,1.0,30.0,12.88576665,77.55275290187642,south
830,830,Built-up  Area,20-Dec,Whitefield,2 BHK,,1447,2.0,1.0,83.0,12.9696365,77.7497448,east
831,831,Super built-up  Area,Ready To Move,Thanisandra,2 BHK,SLaceda,1114,2.0,1.0,39.0,13.054713,77.6339258,north east
832,832,Super built-up  Area,Ready To Move,7th Phase JP Nagar,3 BHK,Brsiaen,1450,2.0,1.0,100.0,12.912432,77.5759515,south
833,833,Super built-up  Area,Ready To Move,Belathur,2 BHK,,460,1.0,0.0,15.0,13.0061889,77.7489674,east
834,834,Built-up  Area,Ready To Move,Vasanthapura,2 BHK,,1022,2.0,2.0,40.0,12.88929715,77.55955229173568,south
835,835,Built-up  Area,Ready To Move,Hebbal,2 BHK,Ratlet ,1000,2.0,2.0,45.0,13.0382184,77.5919,north
836,836,Super built-up  Area,18-Apr,Electronic City,2 BHK,Prarkun,1128,2.0,1.0,68.75,12.848759900000001,77.64825295827616,south east
837,837,Super built-up  Area,18-May,Kanakpura Road,2 BHK,Wiowsri,1180,2.0,2.0,57.0,12.88576665,77.55275290187642,south
838,838,Built-up  Area,Ready To Move,TC Palaya,6 Bedroom,,1000,6.0,1.0,69.0,13.0098552,77.6930892,east
839,839,Plot  Area,Ready To Move,Nagarbhavi,2 Bedroom,,1200,2.0,1.0,150.0,12.95961755,77.51126721318181,west
840,840,Super built-up  Area,Ready To Move,Sadashiva Nagar,3 BHK,,3761,3.0,2.0,660.0,13.014830000000075,77.57771000000008,north
841,841,Super built-up  Area,Ready To Move,Kanakpura Road,2 BHK,PuandHi,1339,2.0,3.0,75.0,12.88576665,77.55275290187642,south
842,842,Super built-up  Area,Ready To Move,Yelachenahalli,3 BHK,,1400,2.0,3.0,55.0,12.897971,77.5700846,south
843,843,Super built-up  Area,Ready To Move,7th Phase JP Nagar,2 BHK,SrncyRe,1040,2.0,1.0,39.52,12.912432,77.5759515,south
844,844,Super built-up  Area,Ready To Move,Kadugodi,2 BHK,,1198,2.0,2.0,58.0,12.9985767,77.7609716,east
845,845,Plot  Area,Ready To Move,Shirdi Sai Layout,4 Bedroom,,1200,3.0,,95.0,12.969801,77.6303775,east
846,846,Super built-up  Area,Ready To Move,Sarjapur  Road,3 BHK,Klark L,1691,3.0,2.0,113.0,12.920441,77.6653284,south east
847,847,Super built-up  Area,Ready To Move,Bisuvanahalli,3 BHK,Prityel,1075,3.0,2.0,36.0,13.237580000000037,77.56019000000003,north
848,848,Super built-up  Area,18-Jun,1st Block Jayanagar,3 BHK,,1630,3.0,2.0,194.0,12.9325276,77.5894233,south
849,849,Super built-up  Area,18-Jun,8th Phase JP Nagar,3 BHK,,1240,3.0,2.0,43.5,12.9167948,77.595038,south
850,850,Super built-up  Area,22-Dec,Bannerghatta Road,2 BHK,PrarePa,1115 - 1130,2.0,0.0,58.935,12.8905219,77.598149,south
851,851,Super built-up  Area,Ready To Move,Mallasandra,3 BHK,Puestig,1665,3.0,2.0,86.58,13.0081486,77.7837101,east
852,852,Built-up  Area,Ready To Move,Marathahalli,3 BHK,Bintsee,2489,3.0,,94.0,12.9552572,77.6984163,east
853,853,Built-up  Area,Ready To Move,Brookefield,2 BHK,Mapleer,1142,2.0,2.0,70.0,12.9668213,77.7168891,east
854,854,Super built-up  Area,Ready To Move,Kodbisanhalli,3 BHK,Diacee ,1976,3.0,1.0,184.0,12.937700000000063,77.70512000000008,east
855,855,Plot  Area,Ready To Move,Sathya Sai Layout,4 Bedroom,Prowshi,5500,4.0,,600.0,12.9888515,77.7183672,east
856,856,Super built-up  Area,Ready To Move,Kothannur,3 BHK,,1853,3.0,2.0,82.0,10.823100000000068,79.38130000000007,south east
857,857,Plot  Area,Ready To Move,Vijayanagar,8 Bedroom,,600,4.0,1.0,72.0,12.9718886,77.54578883887129,west
858,858,Super built-up  Area,Ready To Move,Kasturi Nagar,2 BHK,,1567,2.0,2.0,92.0,13.0044979,77.6603231,east
859,859,Super built-up  Area,Ready To Move,Talaghattapura,2 BHK,,1090,2.0,1.0,27.24,12.86480000000006,77.53288000000003,south west
